{
    "name": "New South Wales",
    "places": [
        {
            "title": "Zilver",
            "links": [
                {
                    "name": "site",
                    "URL": "https://www.zilverbondi.com.au/"
                },
                {
                    "name": "Yelp",
                    "URL": "https://www.yelp.com/biz/zilver-bondi-junction"
                }
            ],
            "lat": -33.891750,
            "lon": 151.250466,
            "city": "Bondi Junction",
            "address": "Shop 6010, Level 6, Westfield Shopping Centre 500 Oxford St"
        },
        {
            "title": "Golden Globe Seafood Restaurant",
            "links": [
                {
                    "name": "Yelp",
                    "URL": "https://www.yelp.com/biz/golden-globe-seafood-restaurant-burwood-2"
                }
            ],
            "lat": -33.878674,
            "lon": 151.103882,
            "city": "Burwood",
            "address": "206 Burwood Rd"
        },
        {
            "title": "Royal Treasure",
            "links": [
                {
                    "name": "site",
                    "URL": "https://www.royaltreasure.com.au/"
                },
                {
                    "name": "Yelp",
                    "URL": "https://www.yelp.com/biz/royal-treasure-seafood-restaurant-burwood"
                }
            ],
            "lat": -33.878550,
            "lon": 151.102203,
            "city": "Burwood",
            "address": "Shop 16, Level 2 27-31 Belmore St"
        },
        {
            "title": "King Dynasty",
            "links": [
                {
                    "name": "site",
                    "URL": "https://kingdynasty.com.au/"
                },
                {
                    "name": "Yelp",
                    "URL": "https://www.yelp.com/biz/king-dynasty-chatswood"
                }
            ],
            "lat": -33.797101,
            "lon": 151.184330,
            "city": "Chatswood",
            "address": "Shop 600, Level 6, Westfield Shopping Centre 1 Anderson St"
        },
        {
            "title": "Star Capital Seafood",
            "links": [
                {
                    "name": "site",
                    "URL": "http://starcapitalseafood.com.au/"
                },
                {
                    "name": "Yelp",
                    "URL": "https://www.yelp.com/biz/star-capital-seafood-chatswood"
                }
            ],
            "lat": -33.795570,
            "lon": 151.184463,
            "city": "Chatswood",
            "address": "399 Victoria Ave"
        },
        {
            "title": "Dragon's Door",
            "links": [
                {
                    "name": "Yelp",
                    "URL": "https://www.yelp.com/biz/dragons-door-chinese-restaurant-erina"
                }
            ],
            "lat": -33.437637,
            "lon": 151.393554,
            "city": "Erina",
            "address": "T18-19 Erina Fair Shopping Centre"
        },
        {
            "title": "Flower Drum H",
            "links": [
                {
                    "name": "Yelp",
                    "URL": "https://www.yelp.com.au/biz/flower-drum-h-hinchinbrook"
                }
            ],
            "lat": -33.925798,
            "lon": 150.855527,
            "city": "Liverpool",
            "address": "Shop 9 441 Hoxton Park Rd Hinchinbrook"
        },
        {
            "title": "Queen Chow",
            "links": [
                {
                    "name": "Yelp",
                    "URL": "https://www.yelp.com/biz/queen-chow-manly-2"
                }
            ],
            "lat": -33.796485,
            "lon": 151.286459,
            "city": "Manly",
            "address": "22-23 Manly Wharf"
        },
        {
            "title": "Hung Cheung",
            "links": [
                {
                    "name": "Yelp",
                    "URL": "https://www.yelp.com/biz/hung-cheung-restaurant-marrickville"
                }
            ],
            "lat": -33.909794,
            "lon": 151.154175,
            "city": "Merrickville",
            "address": "338 Marrickville Rd"
        },
        {
            "title": "Sinofood",
            "links": [
                {
                    "name": "Yelp",
                    "URL": "https://www.yelp.com/biz/sinofood-chinese-restaurant-hamilton"
                }
            ],
            "lat": -32.920559,
            "lon": 151.747864,
            "city": "Newcastle",
            "address": "47 Beaumont St Hamilton"
        },
        {
            "title": "Chef's Gallery",
            "links": [
                {
                    "name": "site",
                    "URL": "https://www.chefsgallery.com.au/"
                },
                {
                    "name": "Yelp",
                    "URL": "https://www.yelp.com/biz/chefs-gallery-townhall-sydney-2"
                }
            ],
            "lat": -33.874684,
            "lon": 151.206284,
            "city": "Sydney",
            "address": "501 George St Shop 12"
        },
        {
            "title": "East Ocean",
            "links": [
                {
                    "name": "Yelp",
                    "URL": "https://www.yelp.com/biz/east-ocean-restaurant-haymarket-4"
                }
            ],
            "lat": -33.879100,
            "lon": 151.204490,
            "city": "Sydney",
            "address": "421-429 Sussex St Level 1, Haymarket"
        },
        {
            "title": "The Eight",
            "links": [
                {
                    "name": "site",
                    "URL": "http://www.theeightrestaurant.com.au/"
                },
                {
                    "name": "Yelp",
                    "URL": "https://www.yelp.com/biz/the-eight-sydney"
                }
            ],
            "lat": -33.878384,
            "lon": 151.202469,
            "city": "Sydney",
            "address": "Level 3, Market City, 9-13 Hay Steet, Haymarket"
        },
        {
            "title": "Emperor's Garden",
            "links": [
                {
                    "name": "Yelp",
                    "URL": "https://www.yelp.com/biz/east-ocean-restaurant-haymarket-4"
                }
            ],
            "lat": -33.879242,
            "lon": 151.203873,
            "city": "Sydney",
            "address": "96-100 Hay St, Haymarket"
        },
        {
            "title": "Fisherman's Wharf Seafood Restaurant",
            "links": [
                {
                    "name": "site",
                    "URL": "http://www.fishermanswharf.com.au/"
                },
                {
                    "name": "Yelp",
                    "URL": "https://www.yelp.com/biz/fishermans-wharf-seafood-restaurant-pyrmont"
                }
            ],
            "lat": -33.869080,
            "lon": 151.187580,
            "city": "Sydney",
            "address": "Sydney Fish Market Level 1 Bank St, Pyrmont"
        },
        {
            "title": "Golden Century Seafood",
            "links": [
                {
                    "name": "site",
                    "URL": "http://www.goldencentury.com.au/"
                },
                {
                    "name": "Yelp",
                    "URL": "https://www.yelp.com/biz/golden-century-seafood-restaurant-sydney"
                }
            ],
            "lat": -33.878006,
            "lon": 151.204483,
            "city": "Sydney",
            "address": "393-399 Sussex Street, Haymarket"
        },
        {
            "title": "Golden Harbour",
            "links": [
                {
                    "name": "Yelp",
                    "URL": "https://www.yelp.com/biz/golden-harbour-restaurant-haymarket-2"
                }
            ],
            "lat": -33.878117,
            "lon": 151.203827,
            "city": "Sydney",
            "address": "31-33 Dixon St, Haymarket"
        },
        {
            "title": "Green Gourmet",
            "links": [
                {
                    "name": "site",
                    "URL": "https://www.greengourmet.com.au/"
                },
                {
                    "name": "Yelp",
                    "URL": "https://www.yelp.com/biz/green-gourmet-newtown-2"
                }
            ],
            "lat": -33.892895,
            "lon": 151.184189,
            "city": "Sydney",
            "address": "115-117 King St, Newtown"
        },
        {
            "title": "Ho's Dim Sum Kitchen",
            "links": [
                {
                    "name": "Yelp",
                    "URL": "https://www.yelp.com/biz/hos-dim-sim-kitchen-sydney"
                }
            ],
            "lat": -33.878921,
            "lon": 151.206970,
            "city": "Sydney",
            "address": "429a Pitt St"
        },
        {
            "title": "Lok Lok Dumpling Bar",
            "links": [
                {
                    "name": "site",
                    "URL": "http://www.loklok.com.au/"
                },
                {
                    "name": "Yelp",
                    "URL": "https://www.yelp.com/biz/lok-lok-dumpling-bar-darling-harbour"
                }
            ],
            "lat": -33.871634,
            "lon": 151.198841,
            "city": "Sydney",
            "address": "Shop FC14, Level 1 2-10 Darling Dr, Darling Harbour"
        },
        {
            "title": "Lotus Dumpling Bar",
            "links": [
                {
                    "name": "Yelp",
                    "URL": "https://www.yelp.com/biz/lotus-dumpling-bar-dawes-point-2"
                }
            ],
            "lat": -33.856412,
            "lon": 151.206406,
            "city": "Sydney",
            "address": "Shop 3 16 Hickson Rd Dawes Point"
        },
        {
            "title": "Marigold",
            "links": [
                {
                    "name": "site",
                    "URL": "https://www.marigold.com.au/"
                },
                {
                    "name": "Yelp",
                    "URL": "https://www.yelp.com/biz/marigold-restaurant-haymarket-3"
                }
            ],
            "lat": -33.879810,
            "lon": 151.204780,
            "city": "Sydney",
            "address": "level 4 & 5, Citymark Building, 683 George Street, Haymarket"
        },
        {
            "title": "Mr. Wong",
            "links": [
                {
                    "name": "site",
                    "URL": "https://merivale.com/venues/mrwong/"
                },
                {
                    "name": "Yelp",
                    "URL": "https://www.yelp.com/biz/mr-wong-sydney"
                }
            ],
            "lat": -33.864040,
            "lon": 151.207920,
            "city": "Sydney",
            "address": "3 Bridge Ln"
        },
        {
            "title": "Nine Dragons",
            "links": [
                {
                    "name": "site",
                    "URL": "https://www.ninedragons.com.au/"
                },
                {
                    "name": "Yelp",
                    "URL": "https://www.yelp.com/biz/nine-dragons-restaurant-sydney"
                }
            ],
            "lat": -33.878330,
            "lon": 151.203850,
            "city": "Sydney",
            "address": "39-45 Dixon St"
        },
        {
            "title": "Old Town Hong Kong Cuisine",
            "links": [
                {
                    "name": "Yelp",
                    "URL": "https://www.yelp.com/biz/old-town-hong-kong-cuisine-sydney"
                }
            ],
            "lat": -33.876739,
            "lon": 151.204056,
            "city": "Sydney",
            "address": "10A Dixon St"
        },
        {
            "title": "Palace Chinese Retaurant",
            "links": [
                {
                    "name": "site",
                    "URL": "http://palacechinese.com.au/"
                },
                {
                    "name": "Yelp",
                    "URL": "https://www.yelp.com/biz/palace-chinese-restaurant-sydney"
                }
            ],
            "lat": -33.871590,
            "lon": 151.208790,
            "city": "Sydney",
            "address": "Shop 38, Level 1, Piccadilly Tower, 133-145 Castlereagh St"
        },
        {
            "title": "Sky Phoenix",
            "links": [
                {
                    "name": "site",
                    "URL": "http://www.phoenixrestaurants.com.au/sky-phoenix/"
                },
                {
                    "name": "Yelp",
                    "URL": "https://www.yelp.com/biz/sky-phoenix-sydney-6"
                }
            ],
            "lat": -33.870510,
            "lon": 151.208920,
            "city": "Sydney",
            "address": "188 Pitt St Level 6, Shop 6001"
        },
        {
            "title": "Terrace Chinese Kitchen",
            "links": [
                {
                    "name": "Yelp",
                    "URL": "https://www.yelp.com/biz/terrace-chinese-kitchen-sydney"
                }
            ],
            "lat": -33.936026,
            "lon": 151.174074,
            "city": "Sydney",
            "address": "Sydney Airport Terminal 1"
        },
        {
            "title": "Zilver",
            "links": [
                {
                    "name": "site",
                    "URL": "http://www.zilver.com.au/"
                },
                {
                    "name": "Yelp",
                    "URL": "https://www.yelp.com/biz/zilver-restaurant-haymarket-2"
                }
            ],
            "lat": -33.881420,
            "lon": 151.208020,
            "city": "Sydney",
            "address": "Level 1, 191 Hay Street, Haymarket"
        }
    ]
}
