{
    "name": "Queensland",
    "places": [
        {
            "title": "7 Palace",
            "links": [
                {
                    "name": "site",
                    "URL": "http://www.7palace.com.au"
                }
            ],
            "lat": -27.598117,
            "lon": 152.974078,
            "city": "Brisbane",
            "address": "156 Inala Ave. Inala"
        },
        {
            "title": "Aspley Oriental Restaurant",
            "links": [
                {
                    "name": "site",
                    "URL": "https://www.aspleyhypermarket.com.au/store/aspley-oriental-restaurant-yum-cha/"
                }
            ],
            "lat": -27.361947,
            "lon": 153.013282,
            "city": "Brisbane",
            "address": "59 Albany Creek Road Aspley Brisbane"
        },
        {
            "title": "Bamboo Basket",
            "links": [
                {
                    "name": "site",
                    "URL": "https://www.bamboobasket.com.au"
                }
            ],
            "lat": -27.440554,
            "lon": 153.068808,
            "city": "Brisbane",
            "address": "39 Hercules Street, Hamilton"
        },
        {
            "title": "Golden Lane",
            "links": [
                {
                    "name": "site",
                    "URL": "http://www.goldenlane.com.au"
                }
            ],
            "lat": -27.571970,
            "lon": 153.063939,
            "city": "Brisbane",
            "address": "Shop 109 Sunnybank Plaza, Cnr Mains Rd & McCullough St., Sunnybank"
        },
        {
            "title": "Haoke Seafood Restaurant",
            "links": [
                {
                    "name": "Yelp",
                    "URL": "https://www.yelp.com/biz/haoke-seafood-restaurant-calamvale"
                }
            ],
            "lat": -27.611086,
            "lon": 153.051134,
            "city": "Brisbane",
            "address": "648 Compton Rd Calamvale"
        },
        {
            "title": "King of Kings",
            "links": [
                {
                    "name": "site",
                    "URL": "https://king-of-kings-restaurant.business.site/"
                }
            ],
            "lat": -27.458149,
            "lon": 153.033569,
            "city": "Brisbane",
            "address": "175 Wickham Street Fortitude Valley"
        },
        {
            "title": "Landmark Restaurant",
            "links": [
                {
                    "name": "site",
                    "URL": "http://landmarkqld.com"
                }
            ],
            "lat": -27.569915,
            "lon": 153.062685,
            "city": "Brisbane",
            "address": "Shop 101, 358 Mains Road, Sunnybank Plaza, Sunnybank"
        },
        {
            "title": "Yum Cha Carindale",
            "links": [
                {
                    "name": "site",
                    "URL": "https://www.yumchacuisine.com"
                }
            ],
            "lat": -27.503627,
            "lon": 153.101756,
            "city": "Brisbane",
            "address": "Shop 1201, Westfield Carindale, 1151 Creek Road, Carindale"
        },
        {
            "title": "Yum Cha Indooroopilly",
            "links": [
                {
                    "name": "site",
                    "URL": "https://www.yumchacuisine.com"
                }
            ],
            "lat": -27.499720,
            "lon": 152.972855,
            "city": "Brisbane",
            "address": "Shop MM5, Level 3, Indoorooplilly Shopping Centre, 322 Moggill Rd, Indooroopilly"
        },
        {
            "title": "Yum Cha Harbour Town",
            "links": [
                {
                    "name": "site",
                    "URL": "https://www.yumchacuisine.com"
                }
            ],
            "lat": -27.931057,
            "lon": 153.387581,
            "city": "Gold Coast",
            "address": "Shop B10A, Harbour Town Shopping Centre, 147 Brisbane Road, Biggera Waters"
        },
        {
            "title": "Yum Cha Robina",
            "links": [
                {
                    "name": "site",
                    "URL": "https://www.yumchacuisine.com"
                }
            ],
            "lat": -28.077791,
            "lon": 153.382945,
            "city": "Gold Coast",
            "address": "Shop 1015/16, Robina Town Centre, Lido Promenade, Robina"
        },
        {
            "title": "Yum Cha Pacific Fair",
            "links": [
                {
                    "name": "site",
                    "URL": "https://www.yumchacuisine.com"
                }
            ],
            "lat": -28.036491,
            "lon": 153.427537,
            "city": "Gold Coast",
            "address": "Pacific Fair, 2-32 Hooker Blvd, Broadbeach Qld 4218"
        }
    ]
}