{
    "name": "Western Australia",
    "places": [
        {
            "title": "8 On the Point",
            "links": [
                {
                    "name": "site",
                    "URL": "http://www.8onthepoint.com.au/"
                },
                {
                    "name": "Yelp",
                    "URL": "https://www.yelp.com/biz/8-on-the-point-chinese-restaurant-east-perth"
                }
            ],
            "lat": -31.963290,
            "lon": 115.878040,
            "city": "Perth",
            "address": "306 Riverside Dr East Perth Western Australia 6004 Australia"
        },
        {
            "title": "Dragon Palace",
            "links": [
                {
                    "name": "Yelp",
                    "URL": "https://www.yelp.com/biz/dragon-palace-northbridge"
                }
            ],
            "lat": -31.947230,
            "lon": 115.858600,
            "city": "Perth",
            "address": "66 Francis St Northbridge"
        },
        {
            "title": "Emma's Dim Sum Cafe",
            "links": [
                {
                    "name": "Yelp",
                    "URL": "https://www.yelp.com/biz/emmas-dim-sum-cafe-delight-northbridge"
                }
            ],
            "lat": -31.946752,
            "lon": 115.862701,
            "city": "Perth",
            "address": "168 Newcastle St Northbridge"
        },
        {
            "title": "Fortune Five",
            "links": [
                {
                    "name": "site",
                    "URL": "https://www.fortunefive.net.au/"
                },
                {
                    "name": "Yelp",
                    "URL": "https://www.yelp.com/biz/fortune-five-chinese-restaurant-northbridge"
                }
            ],
            "lat": -31.948070,
            "lon": 115.857980,
            "city": "Perth",
            "address": "108A James St Northbridge Western Australia 6003 Australia"
        },
        {
            "title": "Grand Orient",
            "links": [
                {
                    "name": "site",
                    "URL": "https://www.melbournehotel.com.au/grand-orient.html"
                },
                {
                    "name": "Yelp",
                    "URL": "https://www.yelp.com/biz/grand-orient-perth"
                }
            ],
            "lat": -31.951502,
            "lon": 115.851538,
            "city": "Perth",
            "address": "Melbourne Hotel 33 Milligan St"
        },
        {
            "title": "Hong Kong Dim Sum Trolley",
            "links": [
                {
                    "name": "Yelp",
                    "URL": "https://www.yelp.com/biz/hong-kong-dim-sum-trolley-northbridge"
                }
            ],
            "lat": -31.949037,
            "lon": 115.857363,
            "city": "Perth",
            "address": "Chung Wah Ln Northbridge"
        },
        {
            "title": "Little China Girl",
            "links": [
                {
                    "name": "Yelp",
                    "URL": "https://www.yelp.com/biz/little-china-girl-northbridge"
                }
            ],
            "lat": -31.948572,
            "lon": 115.857032,
            "city": "Perth",
            "address": "68 Roe St Northbridge"
        },
        {
            "title": "Mishanghai",
            "links": [
                {
                    "name": "Yelp",
                    "URL": "https://www.yelp.com/biz/mishanghai-perth"
                }
            ],
            "lat": -31.954491,
            "lon": 115.857803,
            "city": "Perth",
            "address": "683-703 Hay St Mall"
        },
        {
            "title": "New Moon",
            "links": [
                {
                    "name": "Yelp",
                    "URL": "https://www.yelp.com/biz/new-moon-northbridge"
                }
            ],
            "lat": -31.949110,
            "lon": 115.858980,
            "city": "Perth",
            "address": "63 James St Northbridge"
        },
        {
            "title": "Northbridge Chinese Restaurant",
            "links": [
                {
                    "name": "Yelp",
                    "URL": "https://www.yelp.com/biz/northbridge-chinese-restaurant-northbridge"
                }
            ],
            "lat": -31.949490,
            "lon": 115.857600,
            "city": "Perth",
            "address": "26 Roe St Northbridge"
        },
        {
            "title": "Royal Seafood",
            "links": [
                {
                    "name": "Yelp",
                    "URL": "https://www.yelp.com/biz/royal-seafood-chinese-restaurant-northbridge"
                }
            ],
            "lat": -31.946720,
            "lon": 115.858681,
            "city": "Perth",
            "address": "91 Aberdeen St Northbridge"
        },
        {
            "title": "Silver Moon",
            "links": [
                {
                    "name": "Yelp",
                    "URL": "https://www.yelp.com/biz/silver-moon-east-perth"
                }
            ],
            "lat": -31.960049,
            "lon": 115.871483,
            "city": "Perth",
            "address": "Shop 1 155 Adelaide Tce East Perth"
        }
    ]
}
