{
    "name": "Alberta",
    "places": [
        {
            "title": "1Pot",
            "links": [
                {
                    "name": "Yelp",
                    "URL": "https://www.yelp.com/biz/1-pot-calgary"
                }
            ],
            "lat": 51.050001,
            "lon": -114.061359,
            "city": "Calgary",
            "address": "123 3 Avenue SE, Calgary, AB T2G 0B7"
        },
        {
            "title": "Bill's Peking House",
            "links": [
                {
                    "name": "site",
                    "URL": "http://billspeking.ca/"
                },
                {
                    "name": "Yelp",
                    "URL": "https://www.yelp.com/biz/bill-s-peking-house-calgary"
                }
            ],
            "lat": 50.913050,
            "lon": -114.065119,
            "city": "-114.067070",
            "address": "#335-16061 Macleod Trail SW Calgary, AB T2Y3S5"
        },
        {
            "title": "Bobby Chao's Chinese Cuisine",
            "links": [
                {
                    "name": "Yelp",
                    "URL": "https://www.yelp.com/biz/bobby-chaos-chinese-cuisine-and-dim-sum-calgary"
                }
            ],
            "lat": 51.118880,
            "lon": -114.156970,
            "city": "Calgary",
            "address": "34 Edgedale Drive NW Suite 18 Calgary, AB T3A"
        },
        {
            "title": "Chinese Cultural Centre Cuisine",
            "links": [
                {
                    "name": "Yelp",
                    "URL": "https://www.yelp.com/biz/chinese-cultural-centre-cuisine-calgary"
                }
            ],
            "lat": 51.051291,
            "lon": -114.065269,
            "city": "Calgary",
            "address": "197 1st Street SW Suite 88 Calgary Chinese Cultural Centre Calgary, AB T2P 4M4"
        },
        {
            "title": "Dragon Chinese Restaurant",
            "links": [
                {
                    "name": "Yelp",
                    "URL": "https://www.yelp.com/biz/dragon-chinese-restaurant-calgary"
                }
            ],
            "lat": 51.048503,
            "lon": -114.061878,
            "city": "Calgary",
            "address": "118 - 5 Avenue SE Suite 200, 2nd Floor Calgary, AB T2G 0E2"
        },
        {
            "title": "Fancy Taste of China",
            "links": [
                {
                    "name": "Yelp",
                    "URL": "https://www.yelp.com/biz/fancy-taste-of-china-calgary"
                }
            ],
            "lat": 50.928330,
            "lon": -114.027950,
            "city": "Calgary",
            "address": "1160 137 Avenue SE Calgary, AB T2J 6T6"
        },
        {
            "title": "Forbidden City Dim Sum & Seafood",
            "links": [
                {
                    "name": "site",
                    "URL": "http://www.tasteofasiagroup.ca/#forbidden"
                },
                {
                    "name": "Yelp",
                    "URL": "https://www.yelp.com/biz/forbidden-city-dim-sum-and-seafood-restaurant-calgary"
                }
            ],
            "lat": 51.061767,
            "lon": -113.984007,
            "city": "Calgary",
            "address": "999 36 Street NE Calgary, AB T2A 7X6"
        },
        {
            "title": "Ginger Beef Bistro House",
            "links": [
                {
                    "name": "site",
                    "URL": "https://www.gingerbeef.com/our-locations/ginger-beef-bistro-house/country-hills"
                },
                {
                    "name": "Yelp",
                    "URL": "https://www.yelp.com/biz/ginger-beef-bistro-house-calgary"
                }
            ],
            "lat": 51.147674,
            "lon": -114.077841,
            "city": "Calgary",
            "address": "400-388 Country Hills Blvd NW Calgary, AB T3K 5J6"
        },
        {
            "title": "U & Me Restaurant",
            "links": [
                {
                    "name": "Yelp",
                    "URL": "https://www.yelp.com/biz/u-and-me-restaurant-calgary"
                }
            ],
            "lat": 51.050642,
            "lon": -114.062849,
            "city": "Calgary",
            "address": "233 Centre Street SW Calgary, AB T2G 2B7"
        },
        {
            "title": "Central Grand Restaurant",
            "links": [
                {
                    "name": "site",
                    "URL": "https://www.centralgrand.ca/"
                },
                {
                    "name": "Yelp",
                    "URL": "https://www.yelp.com/biz/central-grand-restaurant-calgary"
                }
            ],
            "lat": 51.066667,
            "lon": -114.062776,
            "city": "Calgary",
            "address": "1623 Centre St NW Calgary, AB T2E 8S7"
        },
        {
            "title": "M Palace",
            "links": [
                {
                    "name": "Yelp",
                    "URL": "https://www.yelp.com/biz/m-palace-calgary-2"
                }
            ],
            "lat": 50.882091,
            "lon": -114.048182,
            "city": "Calgary",
            "address": "10400 Macleod Trail SE Calgary, AB T2J 0P8"
        },
        {
            "title": "T. Pot China Bistro",
            "links": [
                {
                    "name": "site",
                    "URL": "http://www.tasteofasiagroup.ca/"
                },
                {
                    "name": "Yelp",
                    "URL": "https://www.yelp.com/biz/t-pot-china-bistro-calgary"
                }
            ],
            "lat": 51.141579,
            "lon": -114.069523,
            "city": "Calgary",
            "address": "197 1st Street SW Suite 88 Calgary Chinese Cultural Centre Calgary, AB T2P 4M4"
        },
        {
            "title": "Bai Wei Seafood Restaurant",
            "links": [
                {
                    "name": "site",
                    "URL": "https://baiweiedmonton.wixsite.com/seafoodrestaurant"
                },
                {
                    "name": "Yelp",
                    "URL": "https://www.yelp.com/biz/bai-wei-seafood-edmonton"
                }
            ],
            "lat": 53.622420,
            "lon": -113.490640,
            "city": "Edmonton",
            "address": "16049 97 Street NW Edmonton, AB T5X 6E4"
        },
        {
            "title": "Beijing Beijing",
            "links": [
                {
                    "name": "site",
                    "URL": "http://www.beijingbeijing.ca/"
                },
                {
                    "name": "Yelp",
                    "URL": "https://www.yelp.com/biz/beijing-beijing-edmonton-3"
                }
            ],
            "lat": 53.444150,
            "lon": -113.492900,
            "city": "Edmonton",
            "address": "South Park Village Shopping Centre 3803 Calgary Trail S, Suite 700 Edmonton, AB T6J 5M8"
        },
        {
            "title": "Delicious Delicious Dim Sum",
            "links": [
                {
                    "name": "Yelp",
                    "URL": "https://www.yelp.com/biz/delicious-delicious-dim-sum-edmonton"
                }
            ],
            "lat": 53.542430,
            "lon": -113.618540,
            "city": "Edmonton",
            "address": "15540 Stony Plain Road Edmonton, AB T5P 3Z3"
        },
        {
            "title": "Dynasty Century Palace",
            "links": [
                {
                    "name": "Yelp",
                    "URL": "https://www.yelp.com/biz/dynasty-century-palace-edmonton"
                }
            ],
            "lat": 53.548870,
            "lon": -113.488510,
            "city": "Edmonton",
            "address": "200-9700 105 Ave NW Edmonton, AB T5H 4J1"
        },
        {
            "title": "Golden Rice Bowl",
            "links": [
                {
                    "name": "site",
                    "URL": "https://goldenricebowl.ca/"
                },
                {
                    "name": "Yelp",
                    "URL": "https://www.yelp.com/biz/golden-rice-bowl-edmonton"
                }
            ],
            "lat": 53.504220,
            "lon": -113.494680,
            "city": "Edmonton",
            "address": "5365 Gateway Boulevard NW Edmonton, AB T6H 4P8"
        },
        {
            "title": "Good Buddy Dim Sum",
            "links": [
                {
                    "name": "Yelp",
                    "URL": "https://www.yelp.com/biz/good-buddy-dim-sum-chinese-restaurant-sherwood-park-2"
                }
            ],
            "lat": 53.535610,
            "lon": -113.321600,
            "city": "Edmonton",
            "address": "11 Athabascan Avenue Unit 128 Sherwood Park, AB T8A 4H4"
        },
        {
            "title": "Jumbo Dim Sum Dining",
            "links": [
                {
                    "name": "site",
                    "URL": "http://jumbodimsum.ca/"
                },
                {
                    "name": "Yelp",
                    "URL": "https://www.yelp.com/biz/jumbo-dim-sum-dining-edmonton"
                }
            ],
            "lat": 53.530520,
            "lon": -113.615450,
            "city": "Edmonton",
            "address": "10451 170 Street NW Edmonton, AB T5P 4T2"
        },
        {
            "title": "New Tan Tan",
            "links": [
                {
                    "name": "Yelp",
                    "URL": "https://www.yelp.com/biz/new-tan-tan-edmonton"
                }
            ],
            "lat": 53.542860,
            "lon": -113.485450,
            "city": "Edmonton",
            "address": "10133 97 Street NW Edmonton, AB T5J 0L2"
        },
        {
            "title": "Tasty Noodle",
            "links": [
                {
                    "name": "Yelp",
                    "URL": "https://www.yelp.com/biz/tasty-noodle-edmonton"
                }
            ],
            "lat": 53.464120,
            "lon": -113.494240,
            "city": "Edmonton",
            "address": "3203 Calgary Trail Edmonton, AB T6J 5X8"
        },
        {
            "title": "Wok House",
            "links": [
                {
                    "name": "Yelp",
                    "URL": "https://www.yelp.com/biz/wok-house-saint-albert"
                }
            ],
            "lat": 53.641120,
            "lon": -113.626180,
            "city": "Saint Albert",
            "address": "388D Saint Albert Trail Saint Albert, AB T8N 5S8"
        }
    ]
}
