{
    "name": "Manitoba",
    "places": [
        {
            "title": "Dim Sum Garden",
            "links": [
                {
                    "name": "Yelp",
                    "URL": "https://www.yelp.ca/biz/dim-sum-garden-restaurant-winnipeg"
                }
            ],
            "lat": 49.902910,
            "lon": -97.137840,
            "city": "Winnipeg",
            "address": "268 King Street 2nd Floor Winnipeg, MB R3B 3P7"
        },
        {
            "title": "Dim Sum Garden",
            "links": [
                {
                    "name": "Yelp",
                    "URL": "https://www.yelp.ca/biz/dim-sum-garden-restaurant-winnipeg-2"
                }
            ],
            "lat": 49.795530,
            "lon": -97.157530,
            "city": "Winnipeg",
            "address": "2677 Pembina Highway Winnipeg, MB R3T 2H5"
        },
        {
            "title": "Dim Sum Garden",
            "links": [
                {
                    "name": "Yelp",
                    "URL": "https://www.yelp.ca/biz/dim-sum-garden-winnipeg-2"
                }
            ],
            "lat": 49.931830,
            "lon": -97.099530,
            "city": "Winnipeg",
            "address": "885 Henderson Highway Winnipeg, MB R2K 2L8"
        },
        {
            "title": "Kum Koon Garden",
            "links": [
                {
                    "name": "site",
                    "URL": "http://www.kumkoongarden.com/"
                },
                {
                    "name": "Yelp",
                    "URL": "https://www.yelp.ca/biz/kum-koon-garden-winnipeg"
                }
            ],
            "lat": 49.902500,
            "lon": -97.137240,
            "city": "Winnipeg",
            "address": "257 King Street Winnipeg, MB R3B 1J6"
        },
        {
            "title": "Noodle Express",
            "links": [
                {
                    "name": "Yelp",
                    "URL": "https://www.yelp.ca/biz/noodle-express-winnipeg"
                }
            ],
            "lat": 49.901100,
            "lon": -97.139270,
            "city": "Winnipeg",
            "address": "180 King Street Unit 107 Winnipeg, MB R3B 3G8"
        },
        {
            "title": "Sum Po Dim Sum Restaurant",
            "links": [
                {
                    "name": "Yelp",
                    "URL": "https://www.yelp.ca/biz/sum-po-dim-sum-restaurant-winnipeg"
                }
            ],
            "lat": 49.901580,
            "lon": -97.139100,
            "city": "Winnipeg",
            "address": "277 Rupert Avenue Winnipeg, MB R3B 3P7"
        }
    ]
}
