{
    "name": "Quebec",
    "places": [
        {
            "title": "La Maison Kam Fung",
            "links": [
                {
                    "name": "site",
                    "URL": "http://www.restaurantlamaisonkamfung.com/"
                },
                {
                    "name": "Yelp",
                    "URL": "https://www.yelp.ca/biz/la-maison-kam-fung-brossard"
                }
            ],
            "lat": 45.461220,
            "lon": -73.464300,
            "city": "Brossard",
            "address": "7209 Boul Taschereau Local 111 Brossard, QC J4Y 1A1"
        },
        {
            "title": "Chez Ping",
            "links": [
                {
                    "name": "Yelp",
                    "URL": "https://www.yelp.ca/biz/chez-ping-lasalle"
                }
            ],
            "lat": 45.436510,
            "lon": -73.625520,
            "city": "LaSalle",
            "address": "7401 Boul Newman LaSalle, QC H8N 1X3"
        },
        {
            "title": "China Town Kim Fung",
            "links": [
                {
                    "name": "site",
                    "URL": "http://www.restaurantchinatownkimfung.com/fr-index.html"
                },
                {
                    "name": "Yelp",
                    "URL": "https://www.yelp.ca/biz/china-town-kim-fung-montr%C3%A9al-2"
                }
            ],
            "lat": 45.508360,
            "lon": -73.564040,
            "city": "Montreal",
            "address": "1111 Rue Saint-Urbain Suite M05 Montreal, QC H2Z 1Y6"
        },
        {
            "title": "Dumpling Shop",
            "links": [
                {
                    "name": "Yelp",
                    "URL": "https://www.yelp.ca/biz/dumpling-shop-montr%C3%A9al"
                }
            ],
            "lat": 45.474620,
            "lon": -73.623360,
            "city": "Montreal",
            "address": "5674 Avenue De Monkland Montreal, QC H4A 1E4"
        },
        {
            "title": "Nouveau Maison Foo Lam",
            "links": [
                {
                    "name": "Yelp",
                    "URL": "https://www.yelp.ca/biz/nouveau-maison-foo-lam-montr%C3%A9al"
                }
            ],
            "lat": 45.533440,
            "lon": -73.658670,
            "city": "Montreal",
            "address": "9394 Boulevard De L'Acadie Montreal, QC H4N"
        },
        {
            "title": "Restaurant Ruby Rouge",
            "links": [
                {
                    "name": "Yelp",
                    "URL": "https://www.yelp.ca/biz/restaurant-ruby-rouge-montréal-3"
                }
            ],
            "lat": 45.507290,
            "lon": -73.560090,
            "city": "Montreal",
            "address": "1008 Rue Clark Montreal, QC H2Z 1J9"
        },
        {
            "title": "Tong Sing Restaurant",
            "links": [
                {
                    "name": "Yelp",
                    "URL": "https://www.yelp.ca/biz/tong-sing-restaurant-montr%C3%A9al-2"
                }
            ],
            "lat": 45.508530,
            "lon": -73.559840,
            "city": "Montreal",
            "address": "43 Rue De La Gauchetière E Montreal, QC H2Z 1J4"
        }
    ]
}
