{
    "name": "Berlin",
    "places": [
        {
            "title": "Aroma",
            "links": [
                {
                    "name": "site",
                    "URL": "https://www.aroma-kantstrasse.de/"
                },
                {
                    "name": "Yelp",
                    "URL": "https://www.yelp.com/biz/aroma-berlin-2"
                }
            ],
            "lat": 52.506397,
            "lon": 13.315657,
            "city": "Berlin",
            "address": "Kantstr. 35 10625"
        },
        {
            "title": "Dan's Dim Sum",
            "links": [
                {
                    "name": "Yelp",
                    "URL": "https://www.yelp.com/biz/dans-dim-sum-berlin-2"
                }
            ],
            "lat": 52.547114,
            "lon": 13.408674,
            "city": "Berlin",
            "address": "Gleimstr. 17 10437"
        },
        {
            "title": "Flying Monkey",
            "links": [
                {
                    "name": "Yelp",
                    "URL": "https://www.yelp.com/biz/the-flying-monkey-berlin"
                }
            ],
            "lat": 52.538853,
            "lon": 13.409736,
            "city": "Berlin",
            "address": "Kastanienallee 15 10435"
        },
        {
            "title": "Good Friends",
            "links": [
                {
                    "name": "site",
                    "URL": "https://www.goodfriends-berlin.de/"
                },
                {
                    "name": "Yelp",
                    "URL": "https://www.yelp.com/biz/good-friends-berlin-2"
                }
            ],
            "lat": 52.459587,
            "lon": 13.336129,
            "city": "Berlin",
            "address": "Friedrichsruherstr. 50-51 12169"
        },
        {
            "title": "Lecker Song",
            "links": [
                {
                    "name": "Yelp",
                    "URL": "https://www.yelp.com/biz/lecker-song-berlin"
                }
            ],
            "lat": 52.544160,
            "lon": 13.420420,
            "city": "Berlin",
            "address": "Schliemannstr. 19 10437"
        },
        {
            "title": "Long March Canteen",
            "links": [
                {
                    "name": "site",
                    "URL": "http://longmarchcanteen.de/"
                },
                {
                    "name": "Yelp",
                    "URL": "https://www.yelp.com/biz/long-march-canteen-berlin"
                }
            ],
            "lat": 52.502975,
            "lon": 13.430875,
            "city": "Berlin",
            "address": "Wrangelstr. 20 10997"
        },
        {
            "title": "Yumcha Heroes",
            "links": [
                {
                    "name": "site",
                    "URL": "http://yumchaheroes.com/"
                },
                {
                    "name": "Yelp",
                    "URL": "https://www.yelp.com/biz/yumcha-heroes-berlin"
                }
            ],
            "lat": 52.531163,
            "lon": 13.402781,
            "city": "Berlin",
            "address": "Weinbergsweg 8 10119"
        }
    ]
}
