{
    "name": "Hamburg",
    "places": [
        {
            "title": "Dim Sum Haus",
            "links": [
                {
                    "name": "site",
                    "URL": "http://www.restaurantchina.de/"
                },
                {
                    "name": "Yelp",
                    "URL": "https://www.yelp.com/biz/dim-sum-haus-hamburg"
                }
            ],
            "lat": 53.554641,
            "lon": 10.008403,
            "city": "Hamburg",
            "address": "Kirchenallee 37 20099"
        },
        {
            "title": "Jumbo",
            "links": [
                {
                    "name": "Yelp",
                    "URL": "https://www.yelp.com/biz/jumbo-hamburg"
                }
            ],
            "lat": 53.573806,
            "lon": 10.071850,
            "city": "Hamburg",
            "address": "Wandsbeker Marktstr. 157 22041"
        },
        {
            "title": "Mei Moon",
            "links": [
                {
                    "name": "site",
                    "URL": "http://www.meimoon.de/"
                },
                {
                    "name": "Yelp",
                    "URL": "https://www.yelp.com/biz/mei-moon-hamburg"
                }
            ],
            "lat": 53.553528,
            "lon": 10.009366,
            "city": "Hamburg",
            "address": "Bremer Reihe 10 20099"
        },
        {
            "title": "Xiao Xiang Garden",
            "links": [
                {
                    "name": "Yelp",
                    "URL": "https://www.yelp.com/biz/xiao-xiang-garten-hamburg"
                }
            ],
            "lat": 53.583275,
            "lon": 9.980019,
            "city": "Hamburg",
            "address": "Lehmweg 35 20251 "
        }
    ]
}
