{
    "name": "Madrid",
    "places": [
        {
            "title": "Dim Sum Market",
            "links": [
                {
                    "name": "Yelp",
                    "URL": "https://www.yelp.com/biz/dim-sum-market-madrid"
                }
            ],
            "lat": 40.415315,
            "lon": -3.700230,
            "city": "Madrid",
            "address": "Calle del Príncipe, 19 28012"
        },
        {
            "title": "Hong Kong Kitchen",
            "links": [
                {
                    "name": "Yelp",
                    "URL": "https://www.yelp.com/biz/hong-kong-kitchen-madrid"
                }
            ],
            "lat": 40.422764,
            "lon": -3.710649,
            "city": "Madrid",
            "address": "Calle Dr. Carracido, 67 28013"
        },
        {
            "title": "Royal Cantonés",
            "links": [
                {
                    "name": "site",
                    "URL": "https://royalcantonesmadrid.com/"
                },
                {
                    "name": "Yelp",
                    "URL": "https://www.yelp.com/biz/royal-canton%C3%A9s-madrid-2"
                }
            ],
            "lat": 40.383041,
            "lon": -3.702545,
            "city": "Madrid",
            "address": "Calle Olvido, 92 28026"
        },
        {
            "title": "Toy Panda",
            "links": [
                {
                    "name": "site",
                    "URL": "http://toypanda.com/"
                },
                {
                    "name": "Yelp",
                    "URL": "https://www.yelp.com/biz/toy-panda-madrid-2"
                }
            ],
            "lat": 40.425056,
            "lon": -3.702672,
            "city": "Madrid",
            "address": "Calle del Espíritu Santo, 7 28004"
        }
    ]
}
