{
    "name": "Île-de-France",
    "places": [
        {
            "title": "Ducky's",
            "links": [
                {
                    "name": "Yelp",
                    "URL": "https://www.yelp.com/biz/duckys-paris-4"
                }
            ],
            "lat": 48.840542,
            "lon": 2.334625,
            "city": "Paris",
            "address": "157 boulevard du Montparnasse 75006"
        },
        {
            "title": "Bar a Dim Sum",
            "links": [
                {
                    "name": "Yelp",
                    "URL": "https://www.yelp.com/biz/bar-a-dim-sum-paris"
                }
            ],
            "lat": 48.873642,
            "lon": 2.332095,
            "city": "Paris",
            "address": "Galeries Lafayette 35 bd Haussmann 75009"
        },
        {
            "title": "La Maison du Dim Sum",
            "links": [
                {
                    "name": "site",
                    "URL": "https://www.lamaisondudimsum.com"
                },
                {
                    "name": "Yelp",
                    "URL": "https://www.yelp.com/biz/la-maison-du-dim-sum-paris"
                }
            ],
            "lat": 48.845940,
            "lon": 2.343460,
            "city": "Paris",
            "address": "4 Rue Des Fossés Saint Jacques 75005"
        },
        {
            "title": "Le Royal China",
            "links": [
                {
                    "name": "Yelp",
                    "URL": "https://www.yelp.com/biz/le-royal-china-paris"
                }
            ],
            "lat": 48.864097,
            "lon": 2.354857,
            "city": "Paris",
            "address": "85 rue Beaubourg 75003"
        },
        {
            "title": "Le Table de Chine",
            "links": [
                {
                    "name": "site",
                    "URL": "http://www.tabledechine.fr/index.php"
                },
                {
                    "name": "Yelp",
                    "URL": "https://www.yelp.com/biz/la-table-de-chine-paris"
                }
            ],
            "lat": 48.836816,
            "lon": 2.318092,
            "city": "Paris",
            "address": "7 place Catalogne 75014"
        },
        {
            "title": "Lili",
            "links": [
                {
                    "name": "Yelp",
                    "URL": "https://www.yelp.com/biz/lili-paris-2"
                }
            ],
            "lat": 48.871031,
            "lon": 2.293351,
            "city": "Paris",
            "address": "19 avenue Kléber 75016"
        },
        {
            "title": "Yoom",
            "links": [
                {
                    "name": "site",
                    "URL": "https://www.yoom.fr"
                },
                {
                    "name": "Yelp",
                    "URL": "https://www.yelp.com/biz/yoom-paris-2"
                }
            ],
            "lat": 48.853434,
            "lon": 2.337971,
            "city": "Paris",
            "address": "5 rue Grégoire de Tours 75006"
        },
        {
            "title": "Yoom",
            "links": [
                {
                    "name": "site",
                    "URL": "https://www.yoom.fr"
                },
                {
                    "name": "Yelp",
                    "URL": "https://www.yelp.com/biz/yoom-paris-2"
                }
            ],
            "lat": 48.877939,
            "lon": 2.339645,
            "city": "Paris",
            "address": "20 Rue Martyrs 75009"
        },
        {
            "title": "Yoom",
            "links": [
                {
                    "name": "site",
                    "URL": "https://www.yoom.fr"
                },
                {
                    "name": "Yelp",
                    "URL": "https://www.yelp.com/biz/yoom-paris-4"
                }
            ],
            "lat": 48.883807,
            "lon": 2.321591,
            "city": "Paris",
            "address": "59 rue des Dames 75017"
        }
    ]
}