{
    "name": "Kowloon City District",
    "places": [
        {
            "title": "龍德樓",
            "links": [
                {
                    "name": "OpenRice",
                    "URL": "https://www.openrice.com/en/hongkong/r-%E9%BE%8D%E5%BE%B7%E6%A8%93-ho-man-tin-guangdong-dim-sum-r49149"
                }
            ],
            "lat": 22.318649,
            "lon": 114.174935,
            "city": "Ho Man Tin",
            "address": "G/F, 10 Victory Avenue"
        },
        {
            "title": "Gourmet Hot Pot",
            "links": [
                {
                    "name": "OpenRice",
                    "URL": "https://www.openrice.com/en/hongkong/r-gourmet-hot-pot-ho-man-tin-guangdong-hot-pot-r643986"
                }
            ],
            "lat": 22.318916,
            "lon": 114.173800,
            "city": "Ho Man Tin",
            "address": "1/F, Peace Tower, 6 Peace Ave"
        },
        {
            "title": "Shan Dim Sum",
            "links": [
                {
                    "name": "OpenRice",
                    "URL": "https://www.openrice.com/en/hongkong/r-shan-dimsum-ho-man-tin-guangdong-dim-sum-r148808"
                }
            ],
            "lat": 22.313193,
            "lon": 114.178687,
            "city": "Ho Man Tin",
            "address": "Shop no W31, Oi Man Estate Market, Oi Man Estate, 60 Chung Hau Street"
        },
        {
            "title": "Supreme Cuisine",
            "links": [
                {
                    "name": "OpenRice",
                    "URL": "https://www.openrice.com/en/hongkong/r-supreme-cuisine-21-ho-man-tin-guangdong-hot-pot-r94773"
                }
            ],
            "lat": 22.318601,
            "lon": 114.185395,
            "city": "Ho Man Tin",
            "address": "Shop 10, 1/F, Celestial Place, Celestial Heights, 80 Sheung Shing Street"
        },
        {
            "title": "Tao Heung",
            "links": [
                {
                    "name": "site",
                    "URL": "https://www.taoheung.com.hk/en/home/index.html"
                },
                {
                    "name": "OpenRice",
                    "URL": "https://www.openrice.com/en/hongkong/r-tao-heung-ho-man-tin-guangdong-hot-pot-r113608"
                }
            ],
            "lat": 22.312148,
            "lon": 114.178557,
            "city": "Ho Man Tin",
            "address": "Shop F27 & F28, 1/F, Oi Man Plaza, 60 Chung Hau Street"
        },
        {
            "title": "Tong Kee Bau Dim",
            "links": [
                {
                    "name": "OpenRice",
                    "URL": "https://www.openrice.com/en/hongkong/r-tong-kee-bao-dim-ho-man-tin-hong-kong-style-dim-sum-r571907"
                }
            ],
            "lat": 22.312407,
            "lon": 114.178863,
            "city": "Ho Man Tin",
            "address": "Shop 5, G/F, Block B, Chung Man House, Upper Oi Man Estate, 60 Chung Hau Street"
        },
        {
            "title": "Choi Fook Royal Banquet",
            "links": [
                {
                    "name": "site",
                    "URL": "https://www.choifookent.com/"
                },
                {
                    "name": "OpenRice",
                    "URL": "https://www.openrice.com/en/hongkong/r-choi-fook-royal-banquet-hung-hom-guangdong-seafood-r12853"
                }
            ],
            "lat": 22.3027525,
            "lon": 114.1832575,
            "city": "Hung Hom",
            "address": "Shop 858, 8/F, Fortune Metropolis, 6-10 Metropolis Drive"
        },
        {
            "title": "Club One Spotlight",
            "links": [
                {
                    "name": "OpenRice",
                    "URL": "https://www.openrice.com/en/hongkong/r-clubone-spotlight-hung-hom-guangdong-dim-sum-r18075"
                }
            ],
            "lat": 22.304888,
            "lon": 114.190698,
            "city": "Hung Hom",
            "address": "4/F, Screen World (Site 8), The Whampoa"
        },
        {
            "title": "Crystal Harbour Restaurant",
            "links": [
                {
                    "name": "OpenRice",
                    "URL": "https://www.openrice.com/en/hongkong/r-crystal-harbour-restaurant-hung-hom-guangdong-seafood-r20170"
                }
            ],
            "lat": 22.302452,
            "lon": 114.184761,
            "city": "Hung Hom",
            "address": "3/F, Harbourview Horizon, 12 Hung Lok Road"
        },
        {
            "title": "Dragon King Restaurant",
            "links": [
                {
                    "name": "OpenRice",
                    "URL": "https://www.openrice.com/en/hongkong/r-dragon-king-restaurant-hung-hom-guangdong-chinese-bbq-r176592"
                }
            ],
            "lat": 22.304693,
            "lon": 114.190576,
            "city": "Hung Hom",
            "address": " Shop 301, 3/F, Gourmet Place (Site 8), The Whampoa"
        },
        {
            "title": "Golden Fortune Restaurant",
            "links": [
                {
                    "name": "OpenRice",
                    "URL": "https://www.openrice.com/en/hongkong/r-golden-fortune-restaurant-hung-hom-guangdong-hot-pot-r591506"
                }
            ],
            "lat": 22.304693,
            "lon": 114.190576,
            "city": "Hung Hom",
            "address": " Shop B1, B/F, Home World (Site 12), The Whampoa"
        },
        {
            "title": "Hoi Won Teen",
            "links": [
                {
                    "name": "OpenRice",
                    "URL": "https://www.openrice.com/en/hongkong/r-hoi-won-teen-hung-hom-guangdong-dim-sum-r656643"
                }
            ],
            "lat": 22.302794,
            "lon": 114.192397,
            "city": "Hung Hom",
            "address": "2/F, Harbour Grand Kowloon, 20 Tak Fung Street"
        },
        {
            "title": "Hong Wo Kok Restaurant",
            "links": [
                {
                    "name": "OpenRice",
                    "URL": "https://www.openrice.com/en/hongkong/r-hong-wo-kok-restaurant-hung-hom-hong-kong-style-seafood-r191571"
                }
            ],
            "lat": 22.304551,
            "lon": 114.186985,
            "city": "Hung Hom",
            "address": "Shop G25, G/F, Pebbles World (Site 3), The Whampoa"
        },
        {
            "title": "Ho Yin Seafood Restaurant",
            "links": [
                {
                    "name": "OpenRice",
                    "URL": "https://www.openrice.com/en/hongkong/r-ho-yin-seafood-restaurant-hung-hom-guangdong-hot-pot-r502879"
                }
            ],
            "lat": 22.305635,
            "lon": 114.184872,
            "city": "Hung Hom",
            "address": "Shop 1, G/F, Hung Hom Bay Centre, 92-112 Baker Street"
        },
        {
            "title": "King Yat Hin",
            "links": [
                {
                    "name": "OpenRice",
                    "URL": "https://www.openrice.com/en/hongkong/r-king-yat-hin-hung-hom-guangdong-dim-sum-r11914"
                }
            ],
            "lat": 22.301343,
            "lon": 114.183228,
            "city": "Hung Hom",
            "address": "8/F, Harbour Plaza Metropolis, 7 Metropolis Drive"
        },
        {
            "title": "Kung Fu Dim Sum",
            "links": [
                {
                    "name": "OpenRice",
                    "URL": "https://www.openrice.com/en/hongkong/r-kung-fu-dim-sum-hung-hom-hong-kong-style-dim-sum-r525201"
                }
            ],
            "lat": 22.306045,
            "lon": 114.188808,
            "city": "Hung Hom",
            "address": "G/F, 12 Man Siu Street, Whampoa"
        },
        {
            "title": "Majesty Chinese Restaurant",
            "links": [
                {
                    "name": "OpenRice",
                    "URL": "https://www.openrice.com/en/hongkong/r-majesty-chinese-restaurant-hung-hom-guangdong-hot-pot-r22027"
                }
            ],
            "lat": 22.306518,
            "lon": 114.187528,
            "city": "Hung Hom",
            "address": "1/F, Whampoa108 Mall,17 Man Tai Street, Whampoa Estate"
        },
        {
            "title": "Ming Bistro",
            "links": [
                {
                    "name": "OpenRice",
                    "URL": "https://www.openrice.com/en/hongkong/r-ming-bistro-hung-hom-guangdong-dim-sum-r570331"
                }
            ],
            "lat": 22.3047101,
            "lon": 114.1903585,
            "city": "Hung Hom",
            "address": "Shop 113, 1/F, Gourmet Place (Site 8), The Whampoa"
        },
        {
            "title": "Palace Restaurant",
            "links": [
                {
                    "name": "OpenRice",
                    "URL": "https://www.openrice.com/en/hongkong/r-palace-restaurant-hung-hom-guangdong-dim-sum-r26384"
                }
            ],
            "lat": 22.302759,
            "lon": 114.183259,
            "city": "Hung Hom",
            "address": "Shop 774-782, 784, 788, 7/F, Fortune Metropolis, 6-10 Metropolis Drive"
        },
        {
            "title": "Sportful Garden Restaurant",
            "links": [
                {
                    "name": "OpenRice",
                    "URL": "https://www.openrice.com/en/hongkong/r-sportful-garden-restaurant-hung-hom-guangdong-dim-sum-r11391"
                }
            ],
            "lat": 22.304035,
            "lon": 114.189923,
            "city": "Hung Hom",
            "address": "2/F, The Whampoa (Site 6), The Whampoa"
        },
        {
            "title": "Student Restaurant",
            "links": [
                {
                    "name": "OpenRice",
                    "URL": "https://www.openrice.com/en/hongkong/r-student-restaurant-hung-hom-hong-kong-style-dim-sum-r120504"
                }
            ],
            "lat": 22.304971,
            "lon": 114.180238,
            "city": "Hung Hom",
            "address": "4/F, Hong Kong Polytechnic University Communal Building"
        },
        {
            "title": "Sun King Seafood",
            "links": [
                {
                    "name": "OpenRice",
                    "URL": "https://www.openrice.com/en/hongkong/r-sun-king-sea-food-chinese-restaurant-hung-hom-guangdong-dim-sum-r5843"
                }
            ],
            "lat": 22.306965,
            "lon": 114.184312,
            "city": "Hung Hom",
            "address": "31-37 Gillies Ave."
        },
        {
            "title": "Tao Heung",
            "links": [
                {
                    "name": "OpenRice",
                    "URL": "https://www.openrice.com/en/hongkong/r-tao-heung-hung-hom-guangdong-hot-pot-r551170"
                }
            ],
            "lat": 22.310195,
            "lon": 114.187791,
            "city": "Hung Hom",
            "address": "2/F, Hung Hom Square, 37-39 Ma Tau Wai Road"
        },
        {
            "title": "Tong Kee Bao Dim",
            "links": [
                {
                    "name": "OpenRice",
                    "URL": "https://www.openrice.com/en/hongkong/r-tong-kee-bao-dim-hung-hom-hong-kong-style-dim-sum-r602336"
                }
            ],
            "lat": 22.30506,
            "lon": 114.187664,
            "city": "Hung Hom",
            "address": "Shop G7G, Amazing World (Site 1), Wonderful Worlds of Whampoa"
        },
        {
            "title": "Dynasty Garden",
            "links": [
                {
                    "name": "OpenRice",
                    "URL": "https://www.openrice.com/en/hongkong/r-dynasty-garden-kowloon-bay-guangdong-chinese-bbq-r515355"
                }
            ],
            "lat": 22.325676,
            "lon": 114.206984,
            "city": "Kowloon Bay",
            "address": "1/F, Goldin Financial Global Centre, 17 Kai Cheung Road"
        },
        {
            "title": "Fung Shing",
            "links": [
                {
                    "name": "OpenRice",
                    "URL": "https://www.openrice.com/en/hongkong/r-fung-shing-1954-kowloon-bay-guangdong-dim-sum-r606764"
                }
            ],
            "lat": 22.319843,
            "lon": 114.208528,
            "city": "Kowloon Bay",
            "address": "Shop 6, 7/F, MegaBox, Phase 5, Enterprise Square, 38 Wang Chiu Road"
        },
        {
            "title": "Jade Garden",
            "links": [
                {
                    "name": "site",
                    "URL": "https://www.jadegarden.com.hk/en"
                },
                {
                    "name": "OpenRice",
                    "URL": "https://www.openrice.com/en/hongkong/r-jade-garden-kowloon-bay-guangdong-dim-sum-r19240"
                }
            ],
            "lat": 22.323784,
            "lon": 114.213460,
            "city": "Kowloon Bay",
            "address": "Shop F20, Telford Plaza I, 33 Wai Yip Street"
        },
        {
            "title": "Lei Garden",
            "links": [
                {
                    "name": "site",
                    "URL": "https://www.leigarden.hk/en/"
                },
                {
                    "name": "OpenRice",
                    "URL": "https://www.openrice.com/en/hongkong/r-lei-garden-kowloon-bay-guangdong-dim-sum-r25276"
                }
            ],
            "lat": 22.322460,
            "lon": 114.213456,
            "city": "Kowloon Bay",
            "address": "Shop No.F2, Telford Plaza I"
        },
        {
            "title": "Tai Wing Wah Village Cuisine",
            "links": [
                {
                    "name": "OpenRice",
                    "URL": "https://www.openrice.com/en/hongkong/r-tai-wing-wah-vill-cuisine-kowloon-bay-hong-kong-style-dim-sum-r16505"
                }
            ],
            "lat": 22.321372,
            "lon": 114.211285,
            "city": "Kowloon Bay",
            "address": "Shop 2, 1/F, Chevalier Centre, 8 Wan Hoi Road"
        },
        {
            "title": "Tong Kee Bao Dim",
            "links": [
                {
                    "name": "OpenRice",
                    "URL": "https://www.openrice.com/en/hongkong/r-tong-kee-bao-dim-kowloon-bay-hong-kong-style-dim-sum-r50951"
                }
            ],
            "lat": 22.3234646,
            "lon": 114.2139496,
            "city": "Kowloon Bay",
            "address": "Shop KOB1, Concourse Level, Kowloon Bay MTR Station"
        },
        {
            "title": "Ga Fung Dim Sum Specialty Store",
            "links": [
                {
                    "name": "OpenRice",
                    "URL": "https://www.openrice.com/en/hongkong/r-%E5%98%89%E8%B1%90%E9%BB%9E%E5%BF%83%E5%B0%88%E9%96%80%E5%BA%97-kowloon-city-guangdong-dim-sum-r478241"
                }
            ],
            "lat": 22.329352,
            "lon": 114.189695,
            "city": "Kowloon City",
            "address": "Shop 401, 4/F, Kowloon City Plaza, 128 Carpenter Road"
        },
        {
            "title": "Fook Yuen Seafood Restaurant",
            "links": [
                {
                    "name": "OpenRice",
                    "URL": "https://www.openrice.com/en/hongkong/r-fook-yuen-seafood-restaurant-kowloon-city-guangdong-seafood-r822"
                }
            ],
            "lat": 22.330989,
            "lon": 114.188219,
            "city": "Kowloon City",
            "address": "Shop 401, 4/F, Kowloon City Plaza, 128 Carpenter Road"
        },
        {
            "title": "Ho Choi Seafood Restaurant",
            "links": [
                {
                    "name": "OpenRice",
                    "URL": "https://www.openrice.com/en/hongkong/r-ho-choi-seafood-restaurant-kowloon-city-guangdong-seafood-r6034"
                }
            ],
            "lat": 22.330989,
            "lon": 114.188219,
            "city": "Kowloon City",
            "address": "Shop 101-102, B1, Kowloon City Plaza, 128 Carpenter Road"
        },
        {
            "title": "Prestige Dim Sum Restaurant",
            "links": [
                {
                    "name": "OpenRice",
                    "URL": "https://www.openrice.com/en/hongkong/r-prestige-dim-sum-restaurant-kowloon-city-guangdong-dim-sum-r541784"
                }
            ],
            "lat": 22.329085,
            "lon": 114.190171,
            "city": "Kowloon City",
            "address": "G/F, Kam Moon Building, 70-72 Nga Tsin Wai Road"
        },
        {
            "title": "Regal Terrace",
            "links": [
                {
                    "name": "OpenRice",
                    "URL": "https://www.openrice.com/en/hongkong/r-regal-terrace-kowloon-city-guangdong-meatless-menu-r38118"
                }
            ],
            "lat": 22.329877,
            "lon": 114.193011,
            "city": "Kowloon City",
            "address": "2/F, Regal Oriental Hotel, 30-38 Sa Po Road"
        },
        {
            "title": "City Chinese Restaurant",
            "links": [
                {
                    "name": "OpenRice",
                    "URL": "https://www.openrice.com/en/hongkong/r-city-chinese-restaurant-kowloon-tong-hong-kong-style-dim-sum-r457778"
                }
            ],
            "lat": 22.336878,
            "lon": 114.171995,
            "city": "Kowloon Tong",
            "address": "8/F, Bank of China (Hong Kong) Complex, City University of Hong Kong, Tat Chee Ave"
        },
        {
            "title": "Jasmine",
            "links": [
                {
                    "name": "OpenRice",
                    "URL": "https://www.openrice.com/en/hongkong/r-jasmine-kowloon-tong-guangdong-dim-sum-r14977"
                }
            ],
            "lat": 22.337302,
            "lon": 114.174672,
            "city": "Kowloon Tong",
            "address": "Shop 25, G/F, Festival Walk, 80 Tat Chee Avenue"
        },
        {
            "title": "Renfrew Restaurant",
            "links": [
                {
                    "name": "OpenRice",
                    "URL": "https://www.openrice.com/en/hongkong/r-renfrew-restaurant-kowloon-tong-guangdong-chinese-bbq-r510571"
                }
            ],
            "lat": 22.337194,
            "lon": 114.181942,
            "city": "Kowloon Tong",
            "address": "2/F, Baptist University, 34 Renerew Road"
        },
        {
            "title": "Tong Tong Town",
            "links": [
                {
                    "name": "OpenRice",
                    "URL": "https://www.openrice.com/en/hongkong/r-tong-tong-town-kowloon-tong-hong-kong-style-dim-sum-r575400"
                }
            ],
            "lat": 22.337235,
            "lon": 114.174471,
            "city": "Kowloon Tong",
            "address": "Shop L1-33, 1/F, Festival Walk, 80 Tat Chee Avenue"
        },
        {
            "title": "Bao Yum Li Dim",
            "links": [
                {
                    "name": "OpenRice",
                    "URL": "https://www.openrice.com/en/hongkong/r-bao-yam-li-dim-to-kwa-wan-hong-kong-style-dim-sum-r533342"
                }
            ],
            "lat": 22.3175693,
            "lon": 114.188204,
            "city": "To Kwa Wan",
            "address": "Shop 1L, G/F, 1 Lok Shan Road"
        },
        {
            "title": "Dragon Place Restaurant",
            "links": [
                {
                    "name": "OpenRice",
                    "URL": "https://www.openrice.com/en/hongkong/r-dragon-place-restaurant-to-kwa-wan-guangdong-dim-sum-r503492"
                }
            ],
            "lat": 22.323867,
            "lon": 114.188585,
            "city": "To Kwa Wan",
            "address": "G/F & 1/F, 90-93 Ma Tau Chung Road"
        },
        {
            "title": "Fulum Palace",
            "links": [
                {
                    "name": "site",
                    "URL": "https://www.fulum.com.hk/en/%E5%AF%8C%E8%87%A8%E7%9A%87%E5%AE%AE"
                },
                {
                    "name": "OpenRice",
                    "URL": "https://www.openrice.com/en/hongkong/r-fulum-palace-chai-wan-guangdong-dim-sum-r54530"
                }
            ],
            "lat": 22.321950,
            "lon": 114.189776,
            "city": "To Kwa Wan",
            "address": "1/F, Jubilant Place, 33 Ma Tau Kok Road"
        },
        {
            "title": "Hing Fat Restaurant",
            "links": [
                {
                    "name": "OpenRice",
                    "URL": "https://www.openrice.com/en/hongkong/r-hing-fat-restaurant-to-kwa-wan-hong-kong-style-dim-sum-r149277"
                }
            ],
            "lat": 22.323105,
            "lon": 114.188858,
            "city": "To Kwa Wan",
            "address": "G/F., Kawan Court, 102-106 Tam Kung Road"
        },
        {
            "title": "Holly Restaurant",
            "links": [
                {
                    "name": "OpenRice",
                    "URL": "https://www.openrice.com/en/hongkong/r-holly-restaurant-to-kwa-wan-guangdong-dim-sum-r616141"
                }
            ],
            "lat": 22.320674,
            "lon": 114.189300,
            "city": "To Kwa Wan",
            "address": "G/F & 1/F, 93 Pau Chung Street"
        },
        {
            "title": "Hon Po Group of Restaurant",
            "links": [
                {
                    "name": "OpenRice",
                    "URL": "https://www.openrice.com/en/hongkong/r-hon-po-group-of-restaurant-to-kwa-wan-guangdong-seafood-r1280"
                }
            ],
            "lat": 22.316719,
            "lon": 114.190010,
            "city": "To Kwa Wan",
            "address": "78A To Kwa Wan Rd"
        },
        {
            "title": "Tong Kee Bau Dim",
            "links": [
                {
                    "name": "OpenRice",
                    "URL": "https://www.openrice.com/en/hongkong/r-tong-kee-bao-dim-to-kwa-wan-hong-kong-style-dim-sum-r571858"
                }
            ],
            "lat": 22.3223344,
            "lon": 114.189267,
            "city": "To Kwa Wan",
            "address": "Shop 8, G/F, Metropolitan Rise, 28 Ma Tau Kok Road"
        },
        {
            "title": "Victoria Harbour Restaurant",
            "links": [
                {
                    "name": "OpenRice",
                    "URL": "https://www.openrice.com/en/hongkong/r-victoria-harbour-restaurant-to-kwa-wan-guangdong-hot-pot-r26589"
                }
            ],
            "lat": 22.319188,
            "lon": 114.193494,
            "city": "To Kwa Wan",
            "address": "Shop 122, 1/F Grand Waterfront Plaza, 38 San Ma Tau Street"
        }
    ]
}
