{
    "name": "North District",
    "places": [
        {
            "title": "福滿庭酒家",
            "links": [
                {
                    "name": "OpenRice",
                    "URL": "https://www.openrice.com/en/hongkong/r-%E7%A6%8F%E6%BB%BF%E5%BA%AD%E9%85%92%E5%AE%B6-fanling-hong-kong-style-dim-sum-r527257"
                }
            ],
            "lat": 22.485959,
            "lon": 114.140895,
            "city": "Fanling",
            "address": "Shop 73-88, G/F, Flora Plaza, 88 Pak Wo Road"
        },
        {
            "title": "海王漁港",
            "links": [
                {
                    "name": "OpenRice",
                    "URL": "https://www.openrice.com/en/hongkong/r-%E6%B5%B7%E7%8E%8B%E6%BC%81%E6%B8%AF-fanling-guangdong-dim-sum-r536951"
                }
            ],
            "lat": 22.501579,
            "lon": 114.146033,
            "city": "Fanling",
            "address": "G/F, Belair Monte Plaza, 3 Ma Sik Road"
        },
        {
            "title": "Imperial Restaurant",
            "links": [
                {
                    "name": "OpenRice",
                    "URL": "https://www.openrice.com/en/hongkong/r-imperial-restaurant-fanling-guangdong-dim-sum-r527467"
                }
            ],
            "lat": 22.483919,
            "lon": 114.141423,
            "city": "Fanling",
            "address": "Shop F03, 1/F, Wah Ming Shopping Centre, 21 Wah Ming Road"
        },
        {
            "title": "Sun Ming Yuen Banquet",
            "links": [
                {
                    "name": "OpenRice",
                    "URL": "https://www.openrice.com/en/hongkong/r-sun-ming-yuen-banquet-fanling-guangdong-dim-sum-r487429"
                }
            ],
            "lat": 22.501274,
            "lon": 114.146381,
            "city": "Fanling",
            "address": "Shop 118, 1/F, Green Code Plaza, 1 Ma Sik Road"
        },
        {
            "title": "Tao Heung",
            "links": [
                {
                    "name": "site",
                    "URL": "https://www.taoheung.com.hk/en/home/index.html"
                },
                {
                    "name": "OpenRice",
                    "URL": "https://www.openrice.com/en/hongkong/r-tao-heung-fanling-guangdong-hot-pot-r26073"
                }
            ],
            "lat": 22.487463,
            "lon": 114.142540,
            "city": "Fanling",
            "address": "Shop 13, G/F, Avon Park, 15 Yat Ming Road"
        },
        {
            "title": "Tim Chai Ha Kau",
            "links": [
                {
                    "name": "OpenRice",
                    "URL": "https://www.openrice.com/en/hongkong/r-tim-chai-ha-kau-fanling-hong-kong-style-dim-sum-r48892"
                }
            ],
            "lat": 22.500148,
            "lon": 114.144567,
            "city": "Fanling",
            "address": "Shop 12 & 19, Food Court, 2/F Luen Wo Hui Market"
        },
        {
            "title": "Tong Kee Bao Dim",
            "links": [
                {
                    "name": "OpenRice",
                    "URL": "https://www.openrice.com/en/hongkong/r-tong-kee-bao-dim-fanling-hong-kong-style-dim-sum-r30831"
                }
            ],
            "lat": 22.4926438,
            "lon": 114.1385829,
            "city": "Fanling",
            "address": "Shop 11, 2/F, Fanling Town Centre, 18 Fanling Station Road"
        },
        {
            "title": "Victoria Harbour Restaurant",
            "links": [
                {
                    "name": "OpenRice",
                    "URL": "https://www.openrice.com/en/hongkong/r-victoria-harbour-restaurant-fanling-guangdong-hot-pot-r180762"
                }
            ],
            "lat": 22.5003755,
            "lon": 114.1435504,
            "city": "Fanling",
            "address": "Shop S34, L1, Regentville Shopping Centre, 8 Wo Mun Street, Luen Wo Hui"
        },
        {
            "title": "金都海鮮酒家",
            "links": [
                {
                    "name": "OpenRice",
                    "URL": "https://www.openrice.com/en/hongkong/r-%E9%87%91%E9%83%BD%E6%B5%B7%E9%AE%AE%E9%85%92%E5%AE%B6-sheung-shui-guangdong-dim-sum-r13243"
                }
            ],
            "lat": 22.504496,
            "lon": 114.126827,
            "city": "Sheung Shui",
            "address": "1/F, 98 San Fung Avenue"
        },
        {
            "title": "東記雞煲烤魚火鍋點心餃子",
            "links": [
                {
                    "name": "OpenRice",
                    "URL": "https://www.openrice.com/en/hongkong/r-%E6%9D%B1%E8%A8%98%E9%9B%9E%E7%85%B2%E7%83%A4%E9%AD%9A%E7%81%AB%E9%8D%8B%E9%BB%9E%E5%BF%83%E9%A4%83%E5%AD%90-sheung-shui-sichuan-chicken-hot-pot-r446622"
                }
            ],
            "lat": 22.504130,
            "lon": 114.129590,
            "city": "Sheung Shui",
            "address": " G/F, 8 San Cheung Street"
        },
        {
            "title": "Full Gold Seafood Restaurant",
            "links": [
                {
                    "name": "OpenRice",
                    "URL": "https://www.openrice.com/en/hongkong/r-full-gold-seafood-restaurant-sheung-shui-hong-kong-style-dim-sum-r26000"
                }
            ],
            "lat": 22.493813,
            "lon": 114.126704,
            "city": "Sheung Shui",
            "address": "Shop 15, Ching Ho Estate Shopping Centre"
        },
        {
            "title": "Praise Bistro Dining Bistro",
            "links": [
                {
                    "name": "OpenRice",
                    "URL": "https://www.openrice.com/en/hongkong/r-praise-dining-bristro-sheung-shui-hong-kong-style-dim-sum-r611343"
                }
            ],
            "lat": 22.500537,
            "lon": 114.126388,
            "city": "Sheung Shui",
            "address": "Shop G13, G/F, Choi Yuen Plaza, 8 Choi Yuen Road"
        },
        {
            "title": "Tong Kee Bao Dim (Sheung Shui Centre)",
            "links": [
                {
                    "name": "OpenRice",
                    "URL": "https://www.openrice.com/en/hongkong/r-tong-kee-bao-dim-sheung-shui-hong-kong-style-dim-sum-r571245"
                }
            ],
            "lat": 22.5010594,
            "lon": 114.1312981,
            "city": "Sheung Shui",
            "address": "Shop 2014, 2/F, Sheung Shui Centre, 3 Chi Cheong Road"
        },
        {
            "title": "Tong Kee Bao Dim (Lung Fung Garden Plaza)",
            "links": [
                {
                    "name": "OpenRice",
                    "URL": "https://www.openrice.com/en/hongkong/r-tong-kee-bao-dim-sheung-shui-hong-kong-style-dim-sum-r571252"
                }
            ],
            "lat": 22.5030936,
            "lon": 114.1297919,
            "city": "Sheung Shui",
            "address": "Shop 4, 1/F, Lung Fung Garden Plaza, 33 Lung Sum Ave"
        }
    ]
}
