{
    "name": "Southern District",
    "places": [
        {
            "title": "Best Hotpot Restaurant",
            "links": [
                {
                    "name": "OpenRice",
                    "URL": "https://www.openrice.com/en/hongkong/r-best-hotpot-restaurant-aberdeen-guangdong-hot-pot-r49094"
                }
            ],
            "lat": 22.2486223,
            "lon": 114.1530722,
            "city": "Aberdeen",
            "address": "Shop 1 & 28, G/F, ac2, Nam Ning Street"
        },
        {
            "title": "Joy Cuisine",
            "links": [
                {
                    "name": "OpenRice",
                    "URL": "https://www.openrice.com/en/hongkong/r-joy-cuisine-aberdeen-guangdong-dim-sum-r48559"
                }
            ],
            "lat": 22.2482102,
            "lon": 114.1544724,
            "city": "Aberdeen",
            "address": "Shop 1, 3 & 5-8, 1/F, ac2, Nam Ning Street"
        },
        {
            "title": "Kung Fu Dim Sum",
            "links": [
                {
                    "name": "OpenRice",
                    "URL": "https://www.openrice.com/en/hongkong/r-kung-fu-dim-sum-aberdeen-hong-kong-style-dim-sum-r496317"
                }
            ],
            "lat": 22.2496569,
            "lon": 114.1553675,
            "city": "Aberdeen",
            "address": "Shop No. A, B & C, G/F, 190 Aberdeen Main Road"
        },
        {
            "title": "Tao Heong",
            "links": [
                {
                    "name": "OpenRice",
                    "URL": "https://www.openrice.com/en/hongkong/r-tao-heung-aberdeen-guangdong-hot-pot-r534988"
                }
            ],
            "lat": 22.2489227,
            "lon": 114.1550812,
            "city": "Aberdeen",
            "address": "Shop 302, 3/F, Port Centre, 38 Cheng Tu Road"
        },
        {
            "title": "Tong Kee Bao Dim",
            "links": [
                {
                    "name": "OpenRice",
                    "URL": "https://www.openrice.com/en/hongkong/r-tong-kee-bao-dim-aberdeen-hong-kong-style-dim-sum-r503681"
                }
            ],
            "lat": 22.2488609,
            "lon": 114.1553914,
            "city": "Aberdeen",
            "address": "Shop 5B, G/F, 5 Sai On Street"
        },
        {
            "title": "Glorious",
            "links": [
                {
                    "name": "OpenRice",
                    "URL": "https://www.openrice.com/en/hongkong/r-glorious-chinese-restaurant-ap-lei-chau-guangdong-dim-sum-r519346"
                }
            ],
            "lat": 22.242509,
            "lon": 114.149117,
            "city": "Ap Lei Chau",
            "address": "Shop301, 3/F, Marina Square West, South Horizons"
        },
        {
            "title": "Jin Cheng",
            "links": [
                {
                    "name": "OpenRice",
                    "URL": "https://www.openrice.com/en/hongkong/r-jin-cheng-ap-lei-chau-chiu-chow-dim-sum-r650246"
                }
            ],
            "lat": 22.242509,
            "lon": 114.149117,
            "city": "Ap Lei Chau",
            "address": "Shop G39A, G/F, Marina Square (West) South Horizons, South Horizons"
        },
        {
            "title": "Ming Garden",
            "links": [
                {
                    "name": "OpenRice",
                    "URL": "https://www.openrice.com/en/hongkong/r-ming-garden-resturant-ap-lei-chau-guangdong-dim-sum-r492494"
                }
            ],
            "lat": 22.241846,
            "lon": 114.157507,
            "city": "Ap Lei Chau",
            "address": "Shop 401, 4/F, Lei Tung Commercial Centre, 5 Lei Tung Estate Road"
        },
        {
            "title": "Tong Kee Bao Dim",
            "links": [
                {
                    "name": "OpenRice",
                    "URL": "https://www.openrice.com/en/hongkong/r-tong-kee-bao-dim-ap-lei-chau-hong-kong-style-dim-sum-r531069"
                }
            ],
            "lat": 22.244629,
            "lon": 114.150937,
            "city": "Ap Lei Chau",
            "address": "Shop 6, G/F, Lei Fook House (Low Block), Ap Lei Chau Estate"
        },
        {
            "title": "Nam Fong",
            "links": [
                {
                    "name": "OpenRice",
                    "URL": "https://www.openrice.com/en/hongkong/r-nam-fong-pok-fu-lam-guangdong-soup-r11763"
                }
            ],
            "lat": 22.264176,
            "lon": 114.126492,
            "city": "Pok Fu Lum",
            "address": "Shop 5B, G/F, 5 Sai On Street"
        },
        {
            "title": "Jumbo Kingdom",
            "links": [
                {
                    "name": "OpenRice",
                    "URL": "https://www.openrice.com/en/hongkong/r-jumbo-kingdom-wong-chuk-hang-guangdong-seafood-r1502"
                }
            ],
            "lat": 22.245146,
            "lon": 114.164936,
            "city": "Wong Chuk Hang",
            "address": "Shum Wan Pier Drive"
        }
    ]
}
