{
    "name": "Tuen Mun District",
    "places": [
        {
            "title": "Fung Shing",
            "links": [
                {
                    "name": "OpenRice",
                    "URL": "https://www.openrice.com/en/hongkong/r-fung-shing-restaurant-tuen-mun-hong-kong-style-chinese-bbq-r543388"
                }
            ],
            "lat": 22.3839136,
            "lon": 113.9707679,
            "city": "Tuen Mun",
            "address": "Shop 1-3, G/F, 2 Hoi Chu Road"
        },
        {
            "title": "Hoi Tin Garden",
            "links": [
                {
                    "name": "OpenRice",
                    "URL": "https://www.openrice.com/en/hongkong/r-hoi-tin-garden-restaurant-tuen-mun-guangdong-seafood-r7890"
                }
            ],
            "lat": 22.3801091,
            "lon": 113.9789271,
            "city": "Tuen Mun",
            "address": "5 Sam Shing Street, Sam Shing Estate, Castle Peak Bay"
        },
        {
            "title": "Holly",
            "links": [
                {
                    "name": "OpenRice",
                    "URL": "https://www.openrice.com/en/hongkong/r-holly-restaurant-tuen-mun-guangdong-dim-sum-r439918"
                }
            ],
            "lat": 22.4040655,
            "lon": 113.9792678,
            "city": "Tuen Mun",
            "address": "G/F, Victory Building, 199 Castle Peak Road (San Hui)"
        },
        {
            "title": "Lingnan",
            "links": [
                {
                    "name": "OpenRice",
                    "URL": "https://www.openrice.com/en/hongkong/r-lingnan-chinese-restaurant-tuen-mun-guangdong-dim-sum-r25242"
                }
            ],
            "lat": 22.4110682,
            "lon": 113.9836961,
            "city": "Tuen Mun",
            "address": "1/F, Lingnan University Amenities Building"
        },
        {
            "title": "Maxim's Palace",
            "links": [
                {
                    "name": "site",
                    "URL": "https://www.maximschinese.com.hk/brand/1"
                },
                {
                    "name": "OpenRice",
                    "URL": "https://www.openrice.com/en/hongkong/r-maxims-palace-chinese-restaurant-tuen-mun-guangdong-dim-sum-r17672"
                }
            ],
            "lat": 22.391783,
            "lon": 113.976763,
            "city": "Tuen Mun",
            "address": "Tuen Mun Town Hall, 3 Tuen Hi Road"
        },
        {
            "title": "Noble Dim Sum",
            "links": [
                {
                    "name": "OpenRice",
                    "URL": "https://www.openrice.com/en/hongkong/r-noble-dim-sum-tuen-mun-guangdong-dim-sum-r166560"
                }
            ],
            "lat": 22.392641,
            "lon": 113.976655,
            "city": "Tuen Mun",
            "address": "Shop G001, G/F, Phase 1, Tuen Mun Town Plaza, 3 Tuen Lung Street"
        }
    ]
}
