{
    "name": "Wong Tai Sin District",
    "places":
    [
        
         {
        "title": "Tong Kee Bau Dim",
        "links":
        [
            {
                "name":"OpenRice",
                "URL":"https://www.openrice.com/en/hongkong/r-tong-kee-bao-dim-choi-hung-hong-kong-style-dim-sum-r50954"
            }
        ],
        "lat": 22.3350816,
        "lon": 114.2089748,
        "city": "Choi Hung",
        "address": "Shop CHH15, Choi Hung MTR Station"
    },


       {
        "title": "Federal Banquet",
        "links":
        [
            {
                "name":"OpenRice",
                "URL":"https://www.openrice.com/en/hongkong/r-federal-banquet-diamond-hill-guangdong-dim-sum-r464263"
            }
        ],
        "lat": 22.340554,
        "lon": 114.2021768,
        "city": "Diamond Hill",
        "address": "Shop 306, Level 3, Plaza Hollywood, 3 Lung Poon Street"
    },
    {
        "title": "Heichinrou",
        "links":
        [
            {
                "name":"site",
                "URL":"http://www.heichinrou.com/en/location_plaza_hollywood.html"
            },
            {
                "name":"OpenRice",
                "URL":"https://www.openrice.com/en/hongkong/r-heichinrou-diamond-hill-guangdong-seafood-r1186"
            }
        ],
        "lat": 22.340722,
        "lon": 114.2022955,
        "city": "Diamond Hill",
        "address": "Shop 208, 2/F, Plaza Hollywood, 3 Lung Poon Street"
    },
    {
        "title": "Hsin Kwong",
        "links":
        [
            {
                "name":"OpenRice",
                "URL":"https://www.openrice.com/en/hongkong/r-hsin-kwong-restaurant-diamond-hill-guangdong-dim-sum-r19715"
            }
        ],
        "lat": 22.3417354,
        "lon": 114.2003274,
        "city": "Diamond Hill",
        "address": "Shop 201, Lung Poon Court Commerical Complex"
    },
    {
        "title": "Tong Kee Bao Dim",
        "links":
        [
            {
                "name":"OpenRice",
                "URL":"https://www.openrice.com/en/hongkong/r-tong-kee-bao-dim-diamond-hill-hong-kong-style-dim-sum-r465991"
            }
        ],
        "lat": 22.340722,
        "lon": 114.2022955,
        "city": "Diamond Hill",
        "address": "Shop 323, 3/F, Plaza Hollywood, 3 Lung Poon Street"
    },
     {
        "title": "Tong Kee Bao Dim",
        "links":
        [
            {
                "name":"OpenRice",
                "URL":"https://www.openrice.com/en/hongkong/r-tong-kee-bao-dim-diamond-hill-hong-kong-style-dim-sum-r602357"
            }
        ],
        "lat": 22.3440779,
        "lon": 114.2004223,
        "city": "Diamond Hill",
        "address": "Shop 202B, 2/F, Fung Tak Shopping Centre, Fung Tak Estate"
    },

    {
        "title": "Crafted",
        "links":
        [
            {
                "name":"OpenRice",
                "URL":"https://www.openrice.com/en/hongkong/r-crafted-wong-tai-sin-hong-kong-style-dim-sum-r571683"
            }
        ],
        "lat": 22.3450172,
        "lon": 114.1933034,
        "city": "Wong Tai Tsin",
        "address": "Shop S002 (Portion), G/F, Chuk Yuen South Plaza, 15 Chuk Yuen Road"
    },
     {
        "title": "Fulum Palace",
        "links":
        [
            {
                "name":"site",
                "URL":"https://www.fulum.com.hk/en/%E5%AF%8C%E8%87%A8%E7%9A%87%E5%AE%AE"
            },
            {
                "name":"OpenRice",
                "URL":"https://www.openrice.com/en/hongkong/r-fulum-palace-wong-tai-sin-guangdong-dim-sum-r115465"
            }
        ],
        "lat": 22.341995,
        "lon": 114.196276,
        "city": "Wong Tai Tsin",
        "address": "3/F, Hsin Kuang Centre, 120 Lung Cheung Road"
    },
    {
        "title": "Good Joyful Banquet",
        "links":
        [
            {
                "name":"OpenRice",
                "URL":"https://www.openrice.com/en/hongkong/r-good-joyful-banquet-wong-tai-sin-guangdong-dim-sum-r500021"
            }
        ],
        "lat": 22.342091,
        "lon": 114.197303,
        "city": "Wong Tai Tsin",
        "address": "Shop 20-28, G/F, Ho Yuen Centre, 110 Lung Cheung Road"
    },
    {
        "title": "Jade Garden",
        "links":
        [
            {
                "name":"site",
                "URL":"https://www.jadegarden.com.hk/en"
            },
            {
                "name":"OpenRice",
                "URL":"https://www.openrice.com/en/hongkong/r-jade-garden-wong-tai-sin-guangdong-dim-sum-r475103"
            }
        ],
        "lat": 22.3420148,
        "lon": 114.1921413,
        "city": "Wong Tai Tsin",
        "address": "Shop G12, G/F, Temple Mall North, 136 Lung Cheung Road"
    },
    {
        "title": "Noble Dim Sum",
        "links":
        [
            {
                "name":"OpenRice",
                "URL":"https://www.openrice.com/en/hongkong/r-noble-dim-sum-wong-tai-sin-guangdong-dim-sum-r599419"
            }
        ],
        "lat": 22.3413701,
        "lon": 114.1943034,
        "city": "Wong Tai Tsin",
        "address": "Shop 122A, 1/F, Temple Mall South, 103 Ching Tak Street"
    },
    {
        "title": "Tong Kee Bau Dim",
        "links":
        [
            {
                "name":"OpenRice",
                "URL":"https://www.openrice.com/en/hongkong/r-tong-kee-bao-dim-wong-tai-sin-hong-kong-style-dim-sum-r602350"
            }
        ],
        "lat": 22.3437461,
        "lon": 114.1982113,
        "city": "Wong Tai Tsin",
        "address": "G/F, 20 Wan Fung Street"
    },
    {
        "title": "V Cuisine",
        "links":
        [
            {
                "name":"OpenRice",
                "URL":"https://www.openrice.com/en/hongkong/r-v-cuisine-wong-tai-sin-guangdong-dim-sum-r117326"
            }
        ],
        "lat": 22.340665,
        "lon": 114.197253,
        "city": "Wong Tai Tsin",
        "address": "Shop 8, 2/F, Lionsrise, 8 Muk Lun Street"
    }
 ]
    
}
