{
    "name": "Yuen Long District",
    "places":
    [
        {
            "title": "8 Char",
            "links":
            [
                {
                    "name":"OpenRice",
                    "URL":
                    "https://www.openrice.com/en/hongkong/r-8-char-yuen-long-hong-kong-style-dim-sum-r671460"
                }
            ],
            "lat": 22.448692,
            "lon": 14.027396,
            "city": "Yuen Long",
            "address": "Shop 3B, G/F, The Rainbow, 22 Wang Yip South Street"
        },
        {
            "title": "東方(勝記)飯店",
            "links":
            [
                {
                    "name":"OpenRice",
                    "URL":
                    "https://www.openrice.com/en/hongkong/r-%E6%9D%B1%E6%96%B9-%E5%8B%9D%E8%A8%98-%E9%A3%AF%E5%BA%97-yuen-long-hong-kong-style-dim-sum-r661334"
                }
            ],
            "lat": 22.445813,
            "lon": 114.024967,
            "city": "Yuen Long",
            "address": "Shop A, G/F, Shun Fat Building, 17 Kik Yeung Road"
        },
        {
            "title": "兆利飯店",
            "links":
            [
                {
                    "name":"OpenRice",
                    "URL":
                    "https://www.openrice.com/en/hongkong/r-%E5%85%86%E5%88%A9%E9%A3%AF%E5%BA%97-yuen-long-guangdong-dim-sum-r513525"
                }
            ],
            "lat": 22.441017,
            "lon": 114.089745,
            "city": "Yuen Long",
            "address": "Shop 4, Sheung Tsuen, Kam Tin Road, Pat Heung"
        },
        {
            "title": "東哥點心籠仔蒸飯專門店",
            "links":
            [
                {
                    "name":"OpenRice",
                    "URL":
                    "https://www.openrice.com/en/hongkong/r-%E6%9D%B1%E5%93%A5%E9%BB%9E%E5%BF%83%E7%B1%A0%E4%BB%94%E8%92%B8%E9%A3%AF%E5%B0%88%E9%96%80%E5%BA%97-yuen-long-guangdong-dim-sum-r179311"
                }
            ],
            "lat": 22.443137,
            "lon": 114.024141,
            "city": "Yuen Long",
            "address": "G/F, Wing Hing Building, 104-126 Kau Yuk Road"
        },
        {
            "title": "東哥點心籠仔蒸飯專門店",
            "links":
            [
                {
                    "name":"OpenRice",
                    "URL":
                    "https://www.openrice.com/en/hongkong/r-%E6%9D%B1%E5%93%A5%E9%BB%9E%E5%BF%83%E7%B1%A0%E4%BB%94%E8%92%B8%E9%A3%AF%E5%B0%88%E9%96%80%E5%BA%97-yuen-long-guangdong-dim-sum-r452751"
                }
            ],
            "lat": 22.445945,
            "lon": 114.026838,
            "city": "Yuen Long",
            "address": "Shop C, G/F, Yue Fung Mansion, 59 On Ning Road"
        },
        {
            "title": "喜洋洋點心專門店",
            "links":
            [
                {
                    "name":"OpenRice",
                    "URL":
                    "https://www.openrice.com/en/hongkong/r-%E5%96%9C%E6%B4%8B%E6%B4%8B%E9%BB%9E%E5%BF%83%E5%B0%88%E9%96%80%E5%BA%97-yuen-long-guangdong-dim-sum-r49303"
                }
            ],
            "lat": 22.442397,
            "lon": 114.031262,
            "city": "Yuen Long",
            "address": "Shop 1A, G/F, Marina Building, 53-59 Yau San Street"
        },
        {
            "title": "Baolicious",
            "links":
            [
                {
                    "name":"OpenRice",
                    "URL":"https://www.openrice.com/en/hongkong/r-baolicious-yuen-long-hong-kong-style-dim-sum-r519782"
                }
            ],
            "lat": 22.446551,
            "lon": 114.028591,
            "city": "Yuen Long",
            "address": "Shop 1, G/F, Ching Long House, Long Ching Estate"
        },
        {
            "title": "Dim Sum Buddy",
            "links":
            [
                {
                    "name":"OpenRice",
                    "URL":"https://www.openrice.com/en/hongkong/r-dim-sum-buddy-yuen-long-hong-kong-style-dim-sum-r547370"
                }
            ],
            "lat": 22.440533,
            "lon": 114.021762,
            "city": "Yuen Long",
            "address": "Shop 3 , G/F, Springdale Villas Plaza, 80 Ma Tin Road"
        },
    {
        "title": "Friendly Food",
        "links":
        [
            {
                "name":"OpenRice",
                "URL":"https://www.openrice.com/en/hongkong/r-friendly-food-yuen-long-hong-kong-style-dim-sum-r51582"
            }
        ],
        "lat": 22.443336,
        "lon": 114.024815,
        "city": "Yuen Long",
        "address": "元朗教育路88號寶城洋樓地下12-13號舖"
    },
    {
        "title": "Jade Garden",
        "links":
        [
            {
                "name":"site",
                "URL":"https://www.jadegarden.com.hk/en"
            },
            {
                "name":"OpenRice",
                "URL":"https://www.openrice.com/en/hongkong/r-jade-garden-yuen-long-guangdong-dim-sum-r555141"
            }
        ],
        "lat": 22.4452556,
        "lon": 114.0369165,
        "city": "Yuen Long",
        "address": "Shop 2039, 2/F, YOHO MALL, 9 Yuen Lung Street"
    },
    {
        "title": "Joy and Harmony Banquet",
        "links":
        [
            {
                "name":"OpenRice",
                "URL":
                "https://www.openrice.com/en/hongkong/r-joy-and-harmory-banquet-yuen-long-guangdong-dim-sum-r653813"
            }
        ],
        "lat": 22.441876,
        "lon": 114.028114,
        "city": "Yuen Long",
        "address": "Shop 2, 1/F, Ho Shun Tai Building, 10 Sai Ching Street"
    },
    {
        "title": "Lei Bistro",
        "links":
        [
            {
                "name":"OpenRice",
                "URL":"https://www.openrice.com/en/hongkong/r-lei-bistro-yuen-long-guangdong-seafood-r572849"
            }
        ],
        "lat": 22.4452556,
        "lon": 114.0369165,
        "city": "Yuen Long",
        "address": "Shop 1130-1143, 1/F, YOHO MALL I, 9 Yuen Lung Street"
    },
    {
        "title": "Lei Garden",
        "links":
        [
            {
                "name":"site",
                "URL":"https://www.leigarden.hk/en/"
            },
            {
                "name":"OpenRice",
                "URL":"https://www.openrice.com/en/hongkong/r-lei-garden-yuen-long-guangdong-dim-sum-r572842"
            }
        ],
        "lat": 22.4449705,
        "lon": 114.037056,
        "city": "Yuen Long",
        "address": "Shop 1130-1143, 1/F, YOHO MALL I, 9 Yuen Lung Street"
    },
     {
        "title": "Let's Yum Cha",
        "links":
        [
            {
                "name":"OpenRice",
                "URL":"https://www.openrice.com/en/hongkong/r-lets-yum-cha-yuen-long-guangdong-dim-sum-r618272"
            }
        ],
        "lat": 22.4448816,
        "lon": 114.0296367,
        "city": "Yuen Long",
        "address": "G/F, Kit Man House, 13 Kuk Ting Street"
    },
    {
        "title": "Ming Hin Court",
        "links":
        [
            {
                "name":"OpenRice",
                "URL":"https://www.openrice.com/en/hongkong/r-ming-hin-court-yuen-long-guangdong-dim-sum-r578793"
            }
        ],
        "lat": 22.446304,
        "lon": 114.024480,
        "city": "Yuen Long",
        "address": "Shop A, G/F, On Lee Building, 100 Yuen Long On Ning Road"
    },
    {
        "title": "Old Fung Tea House",
        "links":
        [
            {
                "name":"Hong Kong Tourism Board",
                "URL":"https://www.discoverhongkong.com/in/interactive-map/old-fung-tea-house.html"
            },
            {
                "name":"OpenRice",
                "URL":"https://www.openrice.com/en/hongkong/r-old-fung-tea-house-yuen-long-hong-kong-style-dim-sum-r450958"
            }
        ],
        "lat": 22.4420669,
        "lon": 114.0290171,
        "city": "Yuen Long",
        "address": "G/F., 66 Tai Tong Road"
    },
    {
        "title": "Palace Wedding Banquet",
        "links":
        [
            {
                "name":"OpenRice",
                "URL":"https://www.openrice.com/en/hongkong/r-palace-wedding-banquet-yuen-long-guangdong-dim-sum-r146139"
            }
        ],
        "lat": 22.446689,
        "lon": 114.022081,
        "city": "Yuen Long",
        "address": "G/F., Ping Wui Centre, 13-17 Ping Wui Street"
    },
    {
        "title": "Peony Golden Court",
        "links":
        [
            {
                "name":"OpenRice",
                "URL":"https://www.openrice.com/en/hongkong/r-peony-golden-court-yuen-long-guangdong-dim-sum-r622439"
            }
        ],
        "lat": 22.443822,
        "lon": 114.031797,
        "city": "Yuen Long",
        "address": "1/F, Transport Plaza, 2-6 Fung Cheung Road"
    },
    {
        "title": "Pier 88",
        "links":
        [
            {
                "name":"site",
                "URL":"https://www.taoheung.com.hk/en/brands/pier_88/index.html"
            },
            {
                "name":"OpenRice",
                "URL":
                "https://www.openrice.com/en/hongkong/r-pier-88-yuen-long-guangdong-hot-pot-r151274"
            }
        ],
        "lat": 22.450515,
        "lon": 114.022932,
        "city": "Yuen Long",
        "address": "Shop 301, 3/F, Long Ping Commercial Complex"
    },
    {
        "title": "Plentiful Delight Banquet",
        "links":
        [
            {
                "name":"OpenRice",
                "URL":
                "https://www.openrice.com/en/hongkong/r-plentiful-delight-banquet-yuen-long-guangdong-dim-sum-r110510"
            }
        ],
        "lat": 22.441428,
        "lon": 114.027679,
        "city": "Yuen Long",
        "address": "1/F, Ho Shun Tai Building, 10 Sai Ching Street"
    },
    {
        "title": "Red Royalty Banquet",
        "links":
        [
            {
                "name":"OpenRice",
                "URL":
                "https://www.openrice.com/en/hongkong/r-red-royalty-banquet-restaurant-yuen-long-guangdong-dim-sum-r96600"
            }
        ],
        "lat": 22.441581,
        "lon": 114.029091,
        "city": "Yuen Long",
        "address": "1/F, K Plus, 23 Sai Ching Street"
    },
 {
        "title": "Star Palace",
        "links":
        [
            {
                "name":"OpenRice",
                "URL":"https://www.openrice.com/en/hongkong/r-star-palace-yuen-long-guangdong-dim-sum-r489648"
            }
        ],
        "lat": 22.444018,
        "lon": 114.029963,
        "city": "Yuen Long",
        "address": "2/F-3/F, Kwong Wah Centre, 34-36 Hop Choi Street"
    },
    {
        "title": "Sun Ming Yuen Banquet",
        "links":
        [
            {
                "name":"OpenRice",
                "URL":"https://www.openrice.com/en/hongkong/r-sun-ming-yuen-banquet-yuen-long-guangdong-dim-sum-r123919"
            }
        ],
        "lat": 22.442424,
        "lon": 114.026849,
        "city": "Yuen Long",
        "address": " G-2/F, 3 Man Hong Mansion, 17 Sai Yu Street"
    },
    {
        "title": "Sun Ming Yuen Garden",
        "links":
        [
            {
                "name":"OpenRice",
                "URL":"https://www.openrice.com/en/hongkong/r-sun-ming-yuen-garden-yuen-long-guangdong-chinese-bbq-r555015"
            }
        ],
        "lat": 22.473220,
        "lon": 114.051331,
        "city": "Yuen Long",
        "address": "G/F, B24A Fairview Park Boulevard"
    },
    {
        "title": "Super Star Chinese Cuisine",
        "links":
        [
            {
                "name":"OpenRice",
                "URL":"https://www.openrice.com/en/hongkong/r-super-star-chinese-cuisine-yuen-long-guangdong-chinese-bbq-r436831"
            }
        ],
        "lat": 22.4456613,
        "lon": 114.035828,
        "city": "Yuen Long",
        "address": "Shop A301-A302, 3/F, YOHO MALL II, 8 Long Yat Road"
    },
    {
        "title": "Tai Wing Wah",
        "links":
        [
            {
                "name":"OpenRice",
                "URL":"https://www.openrice.com/en/hongkong/r-tai-wing-wah-restaurant-yuen-long-hong-kong-style-dim-sum-r6952"
            }
        ],
        "lat": 22.446034,
        "lon": 114.029644,
        "city": "Yuen Long",
        "address": "2/F, Koon Wong Mansion, 2-6 On Ning Road"
    },
    {
        "title": "Tong Kee Bau Dim (Yuen Long MTR)",
        "links":
        [
            {
                "name":"OpenRice",
                "URL":"https://www.openrice.com/en/hongkong/r-tong-kee-bao-dim-yuen-long-hong-kong-style-dim-sum-r454085"
            }
        ],
        "lat": 22.4461076,
        "lon": 114.0347266,
        "city": "Yuen Long",
        "address": "Shop YUL 27-28, Yuen Long MTR Station"
    }, 
    {
        "title": "Tong Kee Bau Dim (Prosper Centre)",
        "links":
        [
            {
                "name":"OpenRice",
                "URL":"https://www.openrice.com/en/hongkong/r-tong-kee-bao-dim-yuen-long-hong-kong-style-dim-sum-r571879"
            }
        ],
        "lat": 22.4449895,
        "lon": 114.0276748,
        "city": "Yuen Long",
        "address": "Shop 15, G/F, Prosper Centre, 29 Sau Fu Street"
    },
    {
        "title": "Tong Kee Bau Dim (Proser Centre)",
        "links":
        [
            {
                "name":"OpenRice",
                "URL":"https://www.openrice.com/en/hongkong/r-tong-kee-bao-dim-yuen-long-hong-kong-style-dim-sum-r571879"
            }
        ],
        "lat": 22.444990,
        "lon": 114.027675,
        "city": "Yuen Long",
        "address": "Shop 15, G/F, Prosper Centre, 29 Sau Fu Street"
    },
    {
        "title": "Tong Kee Bau Dim (Chit Wing)",
        "links":
        [
            {
                "name":"OpenRice",
                "URL":"https://www.openrice.com/en/hongkong/r-tong-kee-bao-dim-yuen-long-hong-kong-style-dim-sum-r558687"
            }
        ],
        "lat": 22.443163,
        "lon": 114.028498,
        "city": "Yuen Long",
        "address": "Shop A, G/F, Chit Wing Building, 32-34, Tai Tong Road"
    },
    {
        "title": "Tong Kee Bau Dim (Long Ping)",
        "links":
        [
            {
                "name":"OpenRice",
                "URL":"https://www.openrice.com/en/hongkong/r-tong-kee-bao-dim-yuen-long-hong-kong-style-dim-sum-r555001"
            }
        ],
        "lat": 22.450518,
        "lon": 114.022915,
        "city": "Yuen Long",
        "address": "Shop 2-3, G/F, Long Ping Commercial Centre, 1 Long Ping Road"
    }, 
    {
        "title": "V Cuisine",
        "links":
        [
            {
                "name":"OpenRice",
                "URL":"https://www.openrice.com/en/hongkong/r-v-cuisine-yuen-long-guangdong-dim-sum-r51043"
            }
        ],
        "lat": 22.446194,
        "lon": 114.035402,
        "city": "Yuen Long",
        "address": "Shop 36, Yuen Long MTR Station"
    },
    {
        "title": "Wan Tat Hin",
        "links":
        [
            {
                "name":"OpenRice",
                "URL":"https://www.openrice.com/en/hongkong/r-wan-tat-hin-seafood-restaurant-yuen-long-hong-kong-style-dim-sum-r20801"
            }
        ],
        "lat": 22.470196,
        "lon": 114.050357,
        "city": "Yuen Long",
        "address": "10 Man Yuen Chuen, Tai Shang Wai"
    },
    {
        "title": "Yat Gor Dim Sum",
        "links":
        [
            {
                "name":"OpenRice",
                "URL":"https://www.openrice.com/en/hongkong/r-yat-gor-dim-sum-yuen-long-hong-kong-style-dim-sum-r526763"
            }
        ],
        "lat": 22.4428897,
        "lon": 114.0241313,
        "city": "Yuen Long",
        "address": "G/F, Hung Fat House, 89 Kau Yuk Road"
    },
    {
        "title": "Yao Long",
        "links":
        [
            {
                "name":"OpenRice",
                "URL":"https://www.openrice.com/en/hongkong/r-yao-long-yuen-long-guangdong-dim-sum-r608030"
            }
        ],
        "lat": 22.446724,
        "lon": 114.027962,
        "city": "Yuen Long",
        "address": "Shop 32-33, G/F, Block 3, Yuccie Square, 38 Yuen Long On Ning Road"
    },
    {
        "title": "YUE",
        "links":
        [
            {
                "name":"OpenRice",
                "URL":"https://www.openrice.com/en/hongkong/r-yue-tuen-mun-guangdong-dim-sum-r26117"
            }
        ],
        "lat": 22.372212,
        "lon": 113.9896131,
        "city": "Yuen Long",
        "address": "LG/F, Hong Kong Gold Coast Hotel, 1 Castle Peak Road"
    }
   
 ]
    
}
