{
    "name": "Jakarta",
    "places": [
        {
            "title": "Imperial Kitchen",
            "links": [
                {
                    "name": "site",
                    "URL": "http://impgroup.co.id/our_brands/details/imperial-kitchen-dimsum"
                }
            ],
            "lat": -6.366188716557903, 
            "lon": 106.88895702624332,
            "city": "Cibubur",
            "address": "Flavor Junction GF Unit AE 1#T 05 & 06, Jl. Jambore No. 1 Cibubur"
        },
        {
            "title": "Imperial Kitchen",
            "links": [
                {
                    "name": "site",
                    "URL": "http://impgroup.co.id/our_brands/details/imperial-kitchen-dimsum"
                }
            ],
            "lat": -6.2918848300993755, 
            "lon": 106.80095686666549,
            "city": "Cilandek",
            "address": "Town Square Cilandak GF Unit B.046 A & B, Jl. TB Simatupang Kav.17, Jakarta Selatan"
        },
        {
            "title": "Imperial Kitchen",
            "links": [
                {
                    "name": "site",
                    "URL": "http://impgroup.co.id/our_brands/details/imperial-kitchen-dimsum"
                }
            ],
            "lat": -6.168179,
            "lon": 106.786799,
            "city": "Grogol",
            "address": "Mall Ciputra, Lower Ground Floor, Unit LG - 52, Jl. Arteri S. Parman, Grogol, Jakarta Barat, 11470"
        },
        {
            "title": "Golden Sense",
            "links": [
                {
                    "name": "Zomato",
                    "URL": "https://www.zomato.com/jakarta/golden-sense-mangga-dua"
                }
            ],
            "lat": -6.138663,
            "lon": 106.831741,
            "city": "Gunung Sahari",
            "address": "Mangga Dua Square, Jl. Gunung Sahari No. 1, Gunung Sahari"
        },
        {
            "title": "Sun City",
            "links": [
                {
                    "name": "FourSquare",
                    "URL": "https://foursquare.com/v/sun-city-restaurant-and-luxury-club/4d5118c09b27721e1722b446"
                }
            ],
            "lat": -6.155221,
            "lon": 106.818225,
            "city": "Hayam Wuruk",
            "address": "Lindeteves Trade Centre, 5th Floor, Jl. Hayam Wuruk No. 127, Hayam Wuruk, 11180"
        },
        {
            "title": "Imperial Kitchen",
            "links": [
                {
                    "name": "site",
                    "URL": "http://impgroup.co.id/our_brands/details/imperial-kitchen-dimsum"
                }
            ],
            "lat": -6.209150,
            "lon": 106.818148,
            "city": "Karet",
            "address": "Citywalk Sudirman, GF, Jl. KH. Mas Mansyur No. 121, Karet"
        },
        {
            "title": "Imperial Kitchen",
            "links": [
                {
                    "name": "site",
                    "URL": "http://impgroup.co.id/our_brands/details/imperial-kitchen-dimsum"
                }
            ],
            "lat": -6.224862,
            "lon": 106.830604,
            "city": "Kuningan",
            "address": "Kuningan City, 3rd Floor, Unit L3 - 05, Jl. Prof. Dr. Satrio Kav. 18, Kuningan"
        },
        {
            "title": "May Star",
            "links": [
                {
                    "name": "site",
                    "URL": "http://maystargroup.com/"
                }
            ],
            "lat": -6.136032,
            "lon": 106.826205,
            "city": "Mangga Dua",
            "address": "Hotel Le Grandeur Lt 3, Jl. Mangga Dua Raya , Mangga Dua, 10730"
        },
        {
            "title": "Imperial Kitchen",
            "links": [
                {
                    "name": "site",
                    "URL": "http://impgroup.co.id/our_brands/details/imperial-kitchen-dimsum"
                }
            ],
            "lat": -6.268982,
            "lon": 106.832082,
            "city": "Pejaten Village",
            "address": "2nd Floor Unit 2-57, Jl. Warung jati Barat No.39, Pasar Minggu, Jakarta Selatan"
        },
        {
            "title": "May Star",
            "links": [
                {
                    "name": "site",
                    "URL": "http://maystargroup.com/"
                }
            ],
            "lat": -6.127366,
            "lon": 106.791023,
            "city": "Pluit",
            "address": "Emporium Pluit Mall, Lantai 4, Jl. Pluit Selatan Raya Blok S - 6 Kawasan CBD, Pluit, 14440"
        },
        {
            "title": "May Star",
            "links": [
                {
                    "name": "site",
                    "URL": "http://maystargroup.com/"
                }
            ],
            "lat": 6.176609,
            "lon": 106.790736,
            "city": "Slipi",
            "address": "Central Park, LG, No. 103 - 103 A, Jl. Letjen. S. Parman Kav. 28, Slipi, 11470"
        },
        {
            "title": "Tim Ho Wan",
            "links": [
                {
                    "name": "site",
                    "URL": "http://timhowan.com"
                },
                {
                    "name": "Tripadvisor",
                    "URL": "https://www.tripadvisor.com/Restaurant_Review-g294229-d8867131-Reviews-Tim_Ho_Wan_Grand_Indonesia-Jakarta_Java.html"
                },
                {
                    "name": "Zomato",
                    "URL": "https://www.zomato.com/jakarta/tim-ho-wan-thamrin"
                },
                {
                    "name": "Wikipedia",
                    "URL": "https://en.wikipedia.org/wiki/Tim_Ho_Wan"
                }
            ],
            "lat": -6.195236,
            "lon": 106.819940,
            "city": "Thamrin",
            "address": "Ruko Crown Golf, Blok D No. 8 - 10, Bukit Golf Mediterania, Jl. Cluster Marina Indah Raya, Pantai Indah Kapuk, 14470"
        }
    ]
}