{
    "name": "West Java",
    "places": [
        {
            "title": "Imperial Kitchen & Dimsum",
            "links": [
                {
                    "name": "site",
                    "URL": "http://impgroup.co.id/our_brands/details/imperial-kitchen-dimsum"
                }
            ],
            "lat": -6.38594469361968, 
            "lon": 106.826224041216, 
            "city": "Depok",
            "address": "D-Mall Depok, GF Unit G.5, Jl. Margonda Raya Kav.88, Kota Depok 16243"
        },
        {
            "title": "Imperial Kitchen & Dimsum",
            "links": [
                {
                    "name": "site",
                    "URL": "http://impgroup.co.id/our_brands/details/imperial-kitchen-dimsum"
                }
            ],
            "lat": -6.371712774931753, 
            "lon": 106.8322596644718,
            "city": "Depok",
            "address": "Depok Town Square GF GO 01,02, Jl. Margonda Raya No.1, Beji, Kota Depok - Jawa Barat 16424"
        },
        {
            "title": "Imperial Kitchen & Dimsum",
            "links": [
                {
                    "name": "site",
                    "URL": "http://impgroup.co.id/our_brands/details/imperial-kitchen-dimsum"
                }
            ],
            "lat": -6.332825311608179, 
            "lon": 106.78273013786716,
            "city": "Depok",
            "address": "Living Plaza Cinere GF - unit 06, Jl. Cinere Raya no.99. Cinere, Depok, Jawa Barat, 16514"
        },
        {
            "title": "Imperial Kitchen & Dimsum",
            "links": [
                {
                    "name": "site",
                    "URL": "http://impgroup.co.id/our_brands/details/imperial-kitchen-dimsum"
                }
            ],
            "lat": -6.37993099243503, 
            "lon": 106.84403390699558,
            "city": "Depok",
            "address": "Mall Pesona Square 2nd Floor Unit 13-14, Jl. H. Juanda no 99, Depok, Jawa Barat 16418"
        },
        {
            "title": "Imperial Kitchen & Dimsum",
            "links": [
                {
                    "name": "site",
                    "URL": "http://impgroup.co.id/our_brands/details/imperial-kitchen-dimsum"
                }
            ],
            "lat": -6.371187905049732, 
            "lon": 106.83480711007472, 
            "city": "Depok",
            "address": "Margo City Depok 2nd Floor Unit Fl 2-09, Jl. Margonda Raya No.358, Depok"
        }
    ]
}