{
    "name": "Coloana-Taipa",
    "places": [
        {
            "title": "Lotus Palace",
            "links": [
                {
                    "name": "Open Rice",
                    "URL": "https://www.openrice.com/en/macau/r-lotus-palace-coloane-taipa-guangdong-hot-pot-r503112"
                }
            ],
            "lat": 22.144137,
            "lon": 113.562520,
            "city": "Coloane-Taipa",
            "address": "Shop 3316, 3/F, The Parisian Macao, Estrada do Istmo, Cotai Strip, Coloane-Taipa"
        },
        {
            "title": "Pearl Dragon",
            "links": [
                {
                    "name": "Open Rice",
                    "URL": "https://www.openrice.com/en/macau/r-pearl-dragon-coloane-taipa-guangdong-soup-r466758"
                }
            ],
            "lat": 22.140845,
            "lon": 113.562133,
            "city": "Coloane-Taipa",
            "address": "Shop 2111, Level 2, Star Tower at Studio City, Estrada do Istmo, Coloane-Taipa"
        },
        {
            "title": "Jardim das Borboletas",
            "links": [
                {
                    "name": "Open Rice",
                    "URL": "https://www.openrice.com/en/macau/r-jardim-das-borboletas-flores-guangdong-dim-sum-r504042"
                }
            ],
            "lat": 22.158038,
            "lon": 113.558386,
            "city": "Flores",
            "address": "G/F, Edifício New World Garden, 421 Rua de Évora, Flores"
        },
        {
            "title": "Kapok",
            "links": [
                {
                    "name": "Open Rice",
                    "URL": "https://www.openrice.com/en/macau/r-kapok-cantonese-restaurant-flores-guangdong-dim-sum-r23942"
                }
            ],
            "lat": 22.161494,
            "lon": 113.555331,
            "city": "Flores",
            "address": "Edf. Hoi Yee Garden, 60 R/C Rua de Hong Chau, Flores"
        },
        {
            "title": "Ying",
            "links": [
                {
                    "name": "Open Rice",
                    "URL": "https://www.openrice.com/en/macau/r-ying-flores-guangdong-dim-sum-r24471"
                }
            ],
            "lat": 22.161712,
            "lon": 113.554945,
            "city": "Flores",
            "address": "11/F, Altira Macau, Avenida de Kwong Tung, Flores"
        }
    ]
}
