{
    "name": "Penang",
    "places": [
        {
            "title": "Maxim Dim Sum Restaurant",
            "links": [
                {
                    "name": "OpenRice",
                    "URL": "https://my.openrice.com/en/penang/r-maxim-dim-sum-restaurant-air-itam-chinese-dim-sum-r162595"
                }
            ],
            "lat": 5.391182,
            "lon": 100.283825,
            "city": "Ayer Itam",
            "address": "22-24, Medan Angsana 1"
        },
        {
            "title": "Chao Quan Dim Sum",
            "links": [
                {
                    "name": "OpenRice",
                    "URL": "https://my.openrice.com/en/penang/r-chao-quan-dim-sum-butterworth-chinese-dim-sum-r183377"
                }
            ],
            "lat": 5.431999,
            "lon": 100.390897,
            "city": "Butterworth",
            "address": "Jalan Ong Yi How"
        },
        {
            "title": "Chaw Choon Restaurant",
            "links": [
                {
                    "name": "OpenRice",
                    "URL": "https://my.openrice.com/en/penang/r-chaw-choon-restaurant-butterworth-chinese-dim-sum-r425354"
                }
            ],
            "lat": 5.406899,
            "lon": 100.371351,
            "city": "Butterworth",
            "address": "Jalan Heng Choon Thian"
        },
        {
            "title": "Wong Chow Dim Sum",
            "links": [
                {
                    "name": "OpenRice",
                    "URL": "https://my.openrice.com/en/penang/r-wong-chow-dim-sum-bukit-mertajam-chinese-dim-sum-r509124"
                }
            ],
            "lat": 5.358161,
            "lon": 100.448741,
            "city": "Bukit Mertajam",
            "address": "50-68 Lorong Tembikai 1, Bukit Mertajam"
        },
        {
            "title": "Maxim Dim Sum Restaurant",
            "links": [
                {
                    "name": "OpenRice",
                    "URL": "https://my.openrice.com/en/penang/r-maxim-dim-sum-restaurant-gelugor-chinese-dim-sum-r210067"
                }
            ],
            "lat": 5.349197,
            "lon": 100.294901,
            "city": "Gelugor",
            "address": "Lot 2-G-11 & 12, Bangunan Lip Sin, Lebuh Pekaka 1, Off Jalan Sungai Dua"
        },
        {
            "title": "De Tai Tong Cafe",
            "links": [
                {
                    "name": "OpenRice",
                    "URL": "https://my.openrice.com/en/penang/r-de-tai-tong-cafe-george-town-chinese-dim-sum-r222090"
                }
            ],
            "lat": 5.417810,
            "lon": 100.333419,
            "city": "George Town",
            "address": "45, Lebuh Cintra"
        },
        {
            "title": "Max Gourmet",
            "links": [
                {
                    "name": "OpenRice",
                    "URL": "https://my.openrice.com/en/penang/r-max-gourmet-george-town-chinese-dim-sum-r142358"
                }
            ],
            "lat": 5.434453,
            "lon": 100.314887,
            "city": "George Town",
            "address": "7-11, Gurney Plaza, No. 170, Persiaran Gurney"
        },
        {
            "title": "Restoran Town Steamboat",
            "links": [
                {
                    "name": "OpenRice",
                    "URL": "https://my.openrice.com/en/penang/r-restoran-town-steamboat-george-town-chinese-noodles-r155784"
                }
            ],
            "lat": 5.415873,
            "lon": 100.328182,
            "city": "George Town",
            "address": "63, Lorong Macalister"
        },
        {
            "title": "Restoran Zim Sum",
            "links": [
                {
                    "name": "OpenRice",
                    "URL": "https://my.openrice.com/en/penang/r-restoran-zim-sum-george-town-chinese-dim-sum-r192573"
                },
                {
                    "name": "Yelp",
                    "URL": "https://www.yelp.com/biz/restoran-zim-sum-george-town"
                }
            ],
            "lat": 5.419010,
            "lon": 100.323111,
            "city": "George Town",
            "address": "35, Jalan Anson"
        },
        {
            "title": "De Tai Tong",
            "links": [
                {
                    "name": "OpenRice",
                    "URL": "https://my.openrice.com/en/penang/r-de-tai-tong-cafe-george-town-chinese-dim-sum-r222090"
                },
                {
                    "name": "Yelp",
                    "URL": "https://www.yelp.com/biz/tai-tong-restaurant-george-town"
                }
            ],
            "lat": 5.417810,
            "lon": 100.333419,
            "city": "George Town",
            "address": "45, Lebuh Cintra"
        },
        {
            "title": "Xin Ji De Hong",
            "links": [
                {
                    "name": "OpenRice",
                    "URL": "https://my.openrice.com/en/penang/r-xin-ji-de-shi-hong-kong-dimsum-george-town-chinese-dim-sum-r526276"
                }
            ],
            "lat": 5.413703,
            "lon": 100.311926,
            "city": "George Town",
            "address": "42, Jalan Air Itam"
        },
        {
            "title": "Yong Pin",
            "links": [
                {
                    "name": "OpenRice",
                    "URL": "https://my.openrice.com/en/penang/r-yong-pin-restaurant-george-town-chinese-dim-sum-r415979"
                }
            ],
            "lat": 5.416028,
            "lon": 100.332311,
            "city": "George Town",
            "address": "11-B & C, Jalan Sungai Ujong"
        },
        {
            "title": "Bai Hai Seafood Market",
            "links": [
                {
                    "name": "OpenRice",
                    "URL": "https://my.openrice.com/en/penang/r-bali-hai-seafood-market-jelutong-chinese-dim-sum-r150226"
                }
            ],
            "lat": 5.433850,
            "lon": 100.315434,
            "city": "Jelutong",
            "address": "90A-D, Persiaran Gurney"
        },
        {
            "title": "Chao Zhou",
            "links": [
                {
                    "name": "OpenRice",
                    "URL": "https://my.openrice.com/en/penang/r-chao-zhou-restaurant-perai-chinese-fine-dining-r523598"
                }
            ],
            "lat": 5.388011,
            "lon": 100.389501,
            "city": "Perai",
            "address": "107,109 & 111, Jalan Gan Chai Leng, Taman Chai Leng"
        }
    ]
}
