{
    "name": "South Holland",
    "places": [
        {
            "title": "Full Moon City",
            "links": [
                {
                    "name": "site",
                    "URL": "https://fullmooncity.nl/"
                }
            ],
            "lat": 52.07545865795135,
            "lon": 4.311698556070538,
            "city": "The Hague",
            "address": "Achter Raamstraat 75, 2512 BW, The Hague The Netherlands"
        },
        {
            "title": "Kee Lun Palace",
            "links": [
                {
                    "name": "site",
                    "URL": "https://www.kee-lun-palace-den-haag.nl/"
                }
            ],
            "lat": 52.075439,
            "lon": 4.3092302,
            "city": "The Hague",
            "address": "Wagenstraat 95, The Hague The Netherlands"
        },
        {
            "title": "Mandarin Palace",
            "links": [
                {
                    "name": "site",
                    "URL": "https://mandarinpalace.nl/"
                }
            ],
            "lat": 52.07543887537496,
            "lon": 4.311709284906611,
            "city": "The Hague",
            "address": "Nicolaistraat 35, 2517 SZ, The Hague The Netherlands"
        },
        {
            "title": "Ming Dynasty",
            "links": [
                {
                    "name": "Yelp",
                    "URL": "https://www.yelp.com/biz/ming-dynasty-den-haag"
                }
            ],
            "lat": 52.07678991792647,
            "lon": 4.317507556070611,
            "city": "The Hague",
            "address": "Spui 170, The Hague The Netherlands"
        },
        {
            "title": "St. Anny Tea House",
            "links": [
                {
                    "name": "site",
                    "URL": "https://stannyteahouse.nl/"
                }
            ],
            "lat": 52.0752583,
            "lon":4.2430773,
            "city": "The Hague",
            "address": "Spui 170, The Hague The Netherlands"
        },
        {
            "title": "Walong",
            "links": [
                {
                    "name": "site",
                    "URL": "https://www.restaurantwalong.nl/"
                }
            ],
            "lat": 52.08959689834133,
            "lon": 4.275195856071056,
            "city": "The Hague",
            "address": "Frederik Hendriklaan 286 2585bn, 2582 BN, The Hague The Netherlands"
        },
        {
            "title": "Wong Kee",
            "links": [
                {
                    "name": "site",
                    "URL": "https://www.wong-kee.nl/"
                }
            ],
            "lat": 52.076356555166264,
            "lon": 4.314113084906686,
            "city": "The Hague",
            "address": "Gedempte Gracht 319, 2512 AM, The Hague The Netherlands"
        }
    ]
}
