{
    "name": "Waikato",
    "places": [
        {
            "title": "Dragon Boat Restaurant",
            "links": [
                {
                    "name": "site",
                    "URL": "http://www.dragonboatrestaurant.co.nz/"
                },
                {
                    "name": "Yelp",
                    "URL": "https://www.yelp.com/biz/dragon-boat-restaurant-auckland"
                }
            ],
            "lat": -36.849320,
            "lon": 174.764020,
            "city": "Auckland",
            "address": "7/37 Elliott St Auckland Central"
        },
        {
            "title": "Grand Harbour",
            "links": [
                {
                    "name": "site",
                    "URL": "https://www.grandharbour.co.nz/"
                },
                {
                    "name": "Yelp",
                    "URL": "https://www.yelp.com/biz/grand-harbour-auckland"
                }
            ],
            "lat": -36.845010,
            "lon": 174.759930,
            "city": "Auckland",
            "address": "Pakeham St & Custom St West Viaduct Harbour"
        },
        {
            "title": "Imperial Palace Restaurant",
            "links": [
                {
                    "name": "Yelp",
                    "URL": "https://www.yelp.com/biz/imperial-palace-restaurant-auckland"
                }
            ],
            "lat": -36.898027,
            "lon": 174.846351,
            "city": "Panmure",
            "address": "509 Ellerslie-Panmure Highway"
        },
        {
            "title": "King's House Chinese Restaurant",
            "links": [
                {
                    "name": "Yelp",
                    "URL": "https://www.yelp.com/biz/kings-house-chinese-restaurant-auckland"
                }
            ],
            "lat": -36.925536,
            "lon": 174.896323,
            "city": "Burswood",
            "address": "9 Torrens Road"
        },
        {
            "title": "Golden Phoenix",
            "links": [
                {
                    "name": "Yelp",
                    "URL": "https://www.yelp.com/biz/golden-phoenix-auckland"
                }
            ],
            "lat": -36.811832,
            "lon": 174.724156,
            "city": "Birkenhead",
            "address": "63A Mokoia Road"
        },
        {
            "title": "Asian Wok",
            "links": [
                {
                    "name": "Yelp",
                    "URL": "https://www.yelp.com/biz/asian-wok-auckland-2"
                }
            ],
            "lat": -36.864514,
            "lon": 174.628760,
            "city": "Henderson",
            "address": "130 Lincoln Rd"
        },
        {
            "title": "Pearl Garden",
            "links": [
                {
                    "name": "site",
                    "URL": "https://www.pearlgarden.co.nz/"
                },
                {
                    "name": "Yelp",
                    "URL": "https://www.yelp.com/biz/pearl-garden-auckland"
                }
            ],
            "lat": -36.869276,
            "lon": 174.777211,
            "city": "Newmarket",
            "address": "Level 1, 1 Teed Street"
        },
        {
            "title": "Sun World",
            "links": [
                {
                    "name": "Yelp",
                    "URL": "https://www.yelp.com/biz/sun-world-auckland"
                }
            ],
            "lat": -36.867773,
            "lon": 174.776252,
            "city": "Newmarket",
            "address": "2 York St"
        },
        {
            "title": "VR Baker's Restaurant",
            "links": [
                {
                    "name": "Yelp",
                    "URL": "https://www.yelp.com/biz/vr-bakers-restaurant-auckland"
                }
            ],
            "lat": -36.978550,
            "lon": 174.852534,
            "city": "Papatoetoe",
            "address": "15 Rangitoto Road"
        },
        {
            "title": "Lucky Fortune Restaurant",
            "links": [
                {
                    "name": "Yelp",
                    "URL": "https://www.yelp.com/biz/lucky-fortune-restaurant-auckland"
                }
            ],
            "lat": -36.909337,
            "lon": 174.754730,
            "city": "Three Kings",
            "address": "532-536 Mt Albert Rd"
        }
    ]
}
