{
    "name": "Panamá",
    "places": [
        {
            "title": "Golden Unicorn",
            "links": [
                {
                    "name": "site",
                    "URL": "https://www.goldenunicornpanama.com/"
                }
            ],
            "lat": 8.992321160575155,
            "lon":  -79.49971464119952,
            "city": "Panama City",
            "address": "Edificio Evergreen, Piso 4, San Francisco"
        },
        {
            "title": "Lung Fung",
            "links": [
                {
                    "name": "site",
                    "URL": "https://www.palaciolungfung.com/"
                }
            ],
            "lat": 8.998877145287304,
            "lon":  -79.52686490000002,
            "city": "Panama City",
            "address": "Av. 7aC Nte., Panamá, Panama"
        },
        {
            "title": "Sunly",
            "links": [
                {
                    "name": "site",
                    "URL": "https://www.restaurantesunly.com/"
                }
            ],
            "lat": 9.00678182109919,
            "lon": -79.53635366024872,
            "city": "Panama City",
            "address": "Centro Comercial Los Tucanes, Avenida Miguel A. Brostella, Panamá"
        },
        {
            "title": "Wah Kee",
            "links": [
                {
                    "name": "site",
                    "URL": "https://wahkeepty.com/en/home/"
                },
                {
                    "name": "CN Traveler",
                    "URL": "https://www.cntraveler.com/story/tracing-the-roots-of-dim-sum-in-panama-city"
                }
            ],
            "lat": 9.007017234324502,
            "lon":  -79.53446960000001,
            "city": "Panama City",
            "address": "El Dorado, Plaza Felicidad"
        }
    ]
}
