{
    "name": "Central Visayas",
    "places": [
        {
            "title": "Dim Sum Break (IT Park)",
            "links": [
                {
                    "name": "site",
                    "URL": "https://harbourcitydimsum.com/"
                },
                {
                    "name": "Yelp",
                    "URL": "https://www.yelp.com/biz/dimsum-break-cebu-city-2"
                }
            ],
            "lat": 10.329412,
            "lon": 123.906520,
            "city": "Cebu City",
            "address": "Abad Street IT Park"
        },
        {
            "title": "Dim Sum Break",
            "links": [
                {
                    "name": "site",
                    "URL": "https://harbourcitydimsum.com/"
                },
                {
                    "name": "Yelp",
                    "URL": "https://www.yelp.com/biz/dimsum-break-sm-city-cebu-cebu-city"
                }
            ],
            "lat": 10.311780,
            "lon": 123.916408,
            "city": "Cebu City",
            "address": "SM City Cebu 3rd Floor North Reclamation Area"
        },
        {
            "title": "Dim Sum Break (Pavilion Mall)",
            "links": [
                {
                    "name": "site",
                    "URL": "https://harbourcitydimsum.com/"
                },
                {
                    "name": "Yelp",
                    "URL": "https://www.yelp.com/biz/dimsum-break-cebu-city"
                }
            ],
            "lat": 10.306030,
            "lon": 123.875126,
            "city": "Cebu City",
            "address": "7 R. Duterte Street G/F, One Pavilion Mall"
        },
        {
            "title": "Harbour City Dim Sum House",
            "links": [
                {
                    "name": "Yelp",
                    "URL": "https://www.yelp.com/biz/harbour-city-dimsum-house-cebu-city"
                }
            ],
            "lat": 10.318139,
            "lon": 123.904624,
            "city": "Cebu City",
            "address": "Archbishop Reyes Avenue 3/F, Ayala Center"
        },
        {
            "title": "Harbour City Dim Sum",
            "links": [
                {
                    "name": "Yelp",
                    "URL": "https://www.yelp.com/biz/harbour-city-dim-sum-cebu-city"
                }
            ],
            "lat": 10.324792,
            "lon": 123.908327,
            "city": "Cebu City",
            "address": "Juan Luna Extension LG/F, SM City"
        },
        {
            "title": "Luy's Classic Tea House",
            "links": [
                {
                    "name": "Yelp",
                    "URL": "https://www.yelp.com/biz/luys-classic-tea-house-cebu-city"
                }
            ],
            "lat": 10.313848,
            "lon": 123.917477,
            "city": "Cebu City",
            "address": "Andres Soriano Avenue NRA APM Square"
        },
        {
            "title": "Tim Ho Wan",
            "links": [
                {
                    "name": "site",
                    "URL": "http://www.timhowan.com/"
                },
                {
                    "name": "Yelp",
                    "URL": "https://www.yelp.com/biz/tim-ho-wan-cebu-city"
                }
            ],
            "lat": 10.260475,
            "lon": 123.872243,
            "city": "Cebu City",
            "address": "S Coastal Road UG/F"
        },
        {
            "title": "Tin Gow",
            "links": [
                {
                    "name": "Yelp",
                    "URL": "https://www.yelp.com/biz/tin-gow-cebu-city"
                }
            ],
            "lat": 10.324153,
            "lon": 123.906386,
            "city": "Cebu City",
            "address": "Waterfront Drive Waterfront Hotel and Resort"
        },
        {
            "title": "Dim Sum Break",
            "links": [
                {
                    "name": "site",
                    "URL": "https://harbourcitydimsum.com/"
                },
                {
                    "name": "Yelp",
                    "URL": "https://www.yelp.com/biz/dimsum-break-mandaue-city"
                }
            ],
            "lat": 10.313753,
            "lon": 123.925041,
            "city": "Mandue City",
            "address": "Enclave Building Ouano Avenue"
        }
    ]
}
