{
    "name": "Bangkok",
    "places": [
        {
            "title": "Tim Ho Wan",
            "links": [
                {
                    "name": "site",
                    "URL": "https://timhowan.com/"
                }
            ],
            "lat": 13.777554,
            "lon": 100.573139,
            "city": "Din Daeng",
            "address": "139 Ratchadaphisek Rd, Din Daeng, Bangkok 10400"
        },
        {
            "title": "Tim Ho Wan",
            "links": [
                {
                    "name": "site",
                    "URL": "https://timhowan.com/"
                }
            ],
            "lat": 13.722537,
            "lon": 100.503840,
            "city": "Khlong San",
            "address": "299 Charoen Nakhon Rd, Khlong Ton Sai, Khlong San, Bangkok 10600"
        },
        {
            "title": "Man Ho",
            "links": [
                {
                    "name": "OpenRice",
                    "URL": "https://th.openrice.com/en/bangkok/r-man-ho-jw-marriott-khlong-toei-chinese-congee-r11092"
                }
            ],
            "lat": 13.741653,
            "lon": 100.552003,
            "city": "Khlong Toei",
            "address": "JW Marriott Hotel Bangkok, Soi Sukhumvit 2, Sukhumvit Road, Khlong Toei, Bangkok, Khlong Toei "
        },
        {
            "title": "Tim Ho Wan",
            "links": [
                {
                    "name": "site",
                    "URL": "https://timhowan.com/"
                }
            ],
            "lat": 13.735249,
            "lon": 100.562798,
            "city": "Khlong Toei",
            "address": "982 22 Sukhumvit Rd, Phra Khanong, Khlong Toei, Bangkok 10110"
        },
        {
            "title": "China Table",
            "links": [
                {
                    "name": "OpenRice",
                    "URL": "https://th.openrice.com/en/bangkok/r-china-table-khlongtan-nuea-chinese-dim-sum-r1032374"
                }
            ],
            "lat": 13.734714,
            "lon": 100.564032,
            "city": "Khlongtan Nuea",
            "address": "Radisson Blu Plaza Bangkok, 3rd Floor, Sukhumvit Road, Watthana, Bangkok, Khlongtan Nuea"
        },
        {
            "title": "Coca",
            "links": [
                {
                    "name": "OpenRice",
                    "URL": "https://th.openrice.com/en/bangkok/r-%E0%B9%82%E0%B8%84%E0%B8%84%E0%B8%B2-coca-pathum-wan-chinese-dim-sum-r1153"
                }
            ],
            "lat": 13.744159,
            "lon": 100.535523,
            "city": "Pathum Wan",
            "address": "Siam Square, Soi 7, Rama 1 Road, Pathum Wan, Bangkok, Pathum Wan, 10330"
        },
        {
            "title": "HongKong Noodle",
            "links": [
                {
                    "name": "OpenRice",
                    "URL": "https://th.openrice.com/en/bangkok/r-hongkong-noodle-pathum-wan-chinese-noodle-r1038363"
                }
            ],
            "lat": 13.745089,
            "lon": 100.533888,
            "city": "Pathum Wan",
            "address": "Siam Square One, 4th Floor, Rama 1 Road, Pathumwan, Bangkok, Pathum Wan"
        },
        {
            "title": "Huang Seng Hong",
            "links": [
                {
                    "name": "OpenRice",
                    "URL": "https://th.openrice.com/en/bangkok/r-hua-seng-hong-pathum-wan-chinese-dim-sum-r510456"
                }
            ],
            "lat": 13.745808,
            "lon": 100.539440,
            "city": "Pathum Wan",
            "address": "Central World, 6th Floor, Rama 1 Road, Pathum Wan, Bangkok, Pathum Wan "
        },
        {
            "title": "Man Kitchen",
            "links": [
                {
                    "name": "OpenRice",
                    "URL": "https://th.openrice.com/en/bangkok/r-man-kitchen-by-chef-man-pathum-wan-chinese-sushi-shashimi-r1247460"
                }
            ],
            "lat": 13.757825,
            "lon": 100.535819,
            "city": "Pathum Wan",
            "address": "The Offices at Central World, 1st Floor, Rama 1 Road, Pathum Wan, Bangkok, Pathum Wan"
        },
        {
            "title": "Lin-fa Chinese Restaurant",
            "links": [
                {
                    "name": "OpenRice",
                    "URL": "https://th.openrice.com/en/bangkok/r-lin-fa-chinese-restaurant-thanon-phaya-thai-chinese-chinese-banquet-r4767"
                }
            ],
            "lat": 13.757825,
            "lon": 100.535819,
            "city": "Thanon Phaya Thai",
            "address": "Sukosol Hotel, 477, Si Ayutthaya Road, Ratchathewi, Bangkok, Thanon Phaya Thai, 10400 "
        },
        {
            "title": "Tim Ho Wan",
            "links": [
                {
                    "name": "site",
                    "URL": "https://timhowan.com/"
                }
            ],
            "lat": 13.736828,
            "lon": 100.551880,
            "city": "Watthana",
            "address": "88 Sukhumvit Rd, Khlong Toei Nuea, Watthana, Bangkok 10110"
        }
    ]
}
