{
    "name": "Taoyuan",
    "places": [
        {
            "title": "Beautiful Life",
            "links": [
                {
                    "name": "OpenRice",
                    "URL": "https://tw.openrice.com/en/taoyuan/r-美生餐室-藝文店-taoyuan-city-guangdong-cuisine-hong-kong-style-r474150"
                }
            ],
            "lat": 25.019980,
            "lon": 121.299030,
            "city": "Taoyuan",
            "address": "桃園區新埔八街36號"
        },
        {
            "title": "Dim Sum Master",
            "links": [
                {
                    "name": "OpenRice",
                    "URL": "https://tw.openrice.com/en/taoyuan/r-dim-sum-master-taoyuan-city-guangdong-cuisine-hong-kong-style-fine-dining-r422630"
                }
            ],
            "lat": 24.966000,
            "lon": 121.204060,
            "city": "Taoyuan",
            "address": "桃園區中正路1467號"
        },
        {
            "title": "Fullon Hotel Tea House",
            "links": [
                {
                    "name": "OpenRice",
                    "URL": "https://tw.openrice.com/en/taoyuan/r-桃園福容大飯店-阿基師藝文茶樓-taoyuan-city-guangdong-cuisine-hong-kong-style-taiwanese-snacks-r227371"
                }
            ],
            "lat": 25.013870,
            "lon": 121.303230,
            "city": "Taoyuan",
            "address": "桃園區大興西路一段200號3樓"
        },
        {
            "title": "Jia Dahong Hong Kong Dim Sum",
            "links": [
                {
                    "name": "OpenRice",
                    "URL": "https://tw.openrice.com/en/taoyuan/r-甲大鴻港式飲茶宴會廣場-taoyuan-city-guangdong-cuisine-hong-kong-style-r161949"
                }
            ],
            "lat": 25.022670,
            "lon": 121.314140,
            "city": "Taoyuan",
            "address": "桃園區大有路189號9樓"
        },
        {
            "title": "Point One",
            "links": [
                {
                    "name": "OpenRice",
                    "URL": "https://tw.openrice.com/en/taoyuan/r-點壹籠茶餐廳-taoyuan-city-guangdong-cuisine-hong-kong-style-r439858"
                }
            ],
            "lat": 24.966000,
            "lon": 121.204060,
            "city": "Taoyuan",
            "address": "桃園區中正路610號"
        },
        {
            "title": "Ruby Hong Kong Dim Sum",
            "links": [
                {
                    "name": "OpenRice",
                    "URL": "https://tw.openrice.com/en/taoyuan/r-紅寶石港式飲茶-taoyuan-city-guangdong-cuisine-hong-kong-style-chinese-noodles-r160803"
                }
            ],
            "lat": 24.989790,
            "lon": 121.292490,
            "city": "Taoyuan",
            "address": "桃園區壽昌街20巷56號"
        },
        {
            "title": "Star on Star",
            "links": [
                {
                    "name": "OpenRice",
                    "URL": "https://tw.openrice.com/en/taoyuan/r-星上星港式飲茶-taoyuan-city-guangdong-cuisine-hong-kong-style-chinese-desserts-r163959"
                }
            ],
            "lat": 25.022380,
            "lon": 121.303330,
            "city": "Taoyuan",
            "address": "桃園區經國路288號"
        }
    ]
}