{
    "name": "Tainan",
    "places": [
        {
            "title": "Dongyuefang",
            "links": [
                {
                    "name": "OpenRice",
                    "URL": "https://tw.openrice.com/en/tainan/r-東悅坊-anping-district-guangdong-cuisine-hong-kong-style-wheaten-food-r183931"
                }
            ],
            "lat": 22.994743,
            "lon": 120.16468,
            "city": "Anping District",
            "address": "安平區慶平路539號B1(維悅酒店B1)"
        },
        {
            "title": "Da Da Tea House",
            "links": [
                {
                    "name": "OpenRice",
                    "URL": "https://tw.openrice.com/en/tainan/r-大大茶樓-east-district-guangdong-cuisine-hong-kong-style-chinese-noodles-r98143"
                }
            ],
            "lat": 22.973831,
            "lon": 120.2206863,
            "city": "East Central District",
            "address": "東區中華東路三段360號12F"
        },
        {
            "title": "Guangyue Hong Kong Dim Sum",
            "links": [
                {
                    "name": "OpenRice",
                    "URL": "https://tw.openrice.com/en/tainan/r-港悅港式飲茶-east-district-guangdong-cuisine-hong-kong-style-r473566"
                }
            ],
            "lat": 22.981706,
            "lon": 120.222445,
            "city": "East District",
            "address": "東區崇德路54號"
        },
        {
            "title": "Zhu Kee Tea Stand",
            "links": [
                {
                    "name": "OpenRice",
                    "URL": "https://tw.openrice.com/en/tainan/r-朱記茶水攤-south-district-guangdong-cuisine-hong-kong-style-chinese-noodles-r103996"
                }
            ],
            "lat": 22.9769326,
            "lon": 120.2136298,
            "city": "South District",
            "address": "南區大同路二段192號"
        },
        {
            "title": "Chaofong Hong Kong Dim Sum",
            "links": [
                {
                    "name": "OpenRice",
                    "URL": "https://tw.openrice.com/en/tainan/r-潮坊港式飲茶自助百匯-台南永福店-west-central-district-guangdong-cuisine-hong-kong-style-buffet-r377893"
                }
            ],
            "lat": 22.987350,
            "lon": 120.199830,
            "city": "West Central District",
            "address": "中西區和意路5號"
        },
        {
            "title": "Little Hong Kong",
            "links": [
                {
                    "name": "Yelp",
                    "URL": "https://www.yelp.com/biz/小香港茶餐廳-中西區"
                }
            ],
            "lat": 22.994560,
            "lon": 120.195020,
            "city": "West Central District",
            "address": "No. 140, Kangle Street 康樂街140號 West Central District, 台南市 700 Taiwan"
        },
        {
            "title": "Silks House",
            "links": [
                {
                    "name": "site",
                    "URL": "https://tainan.silksplace.com/en/dining"
                },
                {
                    "name": "Yelp",
                    "URL": "https://www.yelp.com/biz/晶英軒-中西區"
                }
            ],
            "lat": 22.988260,
            "lon": 120.199400,
            "city": "West Central District",
            "address": "No. 1, Heyi Road 和意路1號 West Central District, 台南市 700 Taiwan"
        },
        {
            "title": "Tainan Hotel",
            "links": [
                {
                    "name": "OpenRice",
                    "URL": "https://tw.openrice.com/en/tainan/r-台南大飯店-食選任意點-west-central-district-international-hotel-buffet-r482830"
                }
            ],
            "lat": 22.9972758,
            "lon": 120.2106438,
            "city": "West Central District",
            "address": "中西區成功路1號"
        },
        {
            "title": "Lian Ying Fa Dim Sum",
            "links": [
                {
                    "name": "OpenRice",
                    "URL": "https://tw.openrice.com/en/tainan/r-聯盈發點心專門店-yongkang-district-guangdong-cuisine-hong-kong-style-chinese-noodles-r93769"
                }
            ],
            "lat": 23.029150,
            "lon": 120.251880,
            "city": "Yongkang District",
            "address": "永康區正強街222號"
        },
        {
            "title": "Tainan Business Club",
            "links": [
                {
                    "name": "OpenRice",
                    "URL": "https://tw.openrice.com/en/tainan/r-台南商務會館-港式飲茶-yongkang-district-guangdong-cuisine-hong-kong-style-r227323"
                }
            ],
            "lat": 23.043213,
            "lon": 120.248191,
            "city": "Yongkang District",
            "address": "永康區中正北路347-1號"
        }
    ]
}
