{
    "name": "Scotland",
    "places": [
        {
            "title": "The Manchurian",
            "links": [
                {
                    "name": "Yelp",
                    "URL": "https://www.yelp.co.uk/biz/the-manchurian-aberdeen"
                }
            ],
            "lat": 57.155200,
            "lon": -2.102610,
            "city": "Aberdeen",
            "address": "Aberdeen AB25 3TN"
        },
        {
            "title": "Manchurian",
            "links": [
                {
                    "name": "site",
                    "URL": "http://www.manchuriandundee.com/"
                },
                {
                    "name": "Yelp",
                    "URL": "https://www.yelp.co.uk/biz/the-manchurian-aberdeen"
                }
            ],
            "lat": 56.461200,
            "lon": -2.964920,
            "city": "Dundee",
            "address": "15A Gellatly Street Dundee DD1 3DY"
        },
        {
            "title": "Golden Dragon",
            "links": [
                {
                    "name": "site",
                    "URL": "http://www.thegoldendragonrestaurant.co.uk/"
                },
                {
                    "name": "Yelp",
                    "URL": "https://www.yelp.com/biz/the-golden-dragon-edinburgh"
                }
            ],
            "lat": 55.951960,
            "lon": -3.203340,
            "city": "Edinburgh",
            "address": "21 Castle Street Edinburgh EH2 3DN United Kingdom"
        },
        {
            "title": "Imperial Palace",
            "links": [
                {
                    "name": "site",
                    "URL": "https://www.imperialpalacescotland.co.uk/"
                },
                {
                    "name": "Yelp",
                    "URL": "https://www.yelp.com/biz/imperial-palace-edinburgh"
                }
            ],
            "lat": 55.924550,
            "lon": -3.254200,
            "city": "Edinburgh",
            "address": "36 Inglis Green Road Edinburgh EH14 2ER United Kingdom"
        },
        {
            "title": "Stack Dim Sum Bar",
            "links": [
                {
                    "name": "Yelp",
                    "URL": "https://www.yelp.com/biz/stack-dim-sum-bar-edinburgh"
                }
            ],
            "lat": 55.964710,
            "lon": -3.173740,
            "city": "Edinburgh",
            "address": "42 Dalmeny Street Edinburgh EH6 8RG United Kingdom"
        },
        {
            "title": "Dim Sum",
            "links": [
                {
                    "name": "Yelp",
                    "URL": "https://www.yelp.co.uk/biz/dim-sum-glasgow-2"
                }
            ],
            "lat": 55.862870,
            "lon": -4.254650,
            "city": "Glasgow",
            "address": "69 West Nile Street Glasgow G1 2QB City Centre"
        }
    ]
}
