{
  "name": "California",
  "places": [
    {
      "name": "Chef's Wok",
      "links": [
        {
          "name": "Yelp",
          "URL": "https://www.yelp.com/biz/chefs-wok-alameda"
        }
      ],
      "lat": 37.77785,
      "lon": -122.27696,
      "city": "Alameda",
      "address": "1821 Webster St, Alameda, CA 94501"
    },
    {
      "name": "East Ocean Seafood Restaurant",
      "links": [
        {
          "name": "site",
          "URL": "http://www.eastoceanseafoodrestaurant.com/"
        },
        {
          "name": "Yelp",
          "URL": "https://www.yelp.com/biz/east-ocean-seafood-restaurant-alameda"
        }
      ],
      "lat": 37.77679,
      "lon": -122.27687,
      "city": "Alameda",
      "address": "1713 Webster St, Alameda, CA 94501"
    },
    {
      "name": "Pacific Lighthouse Restaurant",
      "links": [
        {
          "name": "site",
          "URL": "http://www.pacificlighthouse88.com/"
        },
        {
          "name": "Yelp",
          "URL": "https://www.yelp.com/biz/pacific-lighthouse-restaurant-alameda"
        }
      ],
      "lat": 37.78373,
      "lon": -122.26536,
      "city": "Alameda",
      "address": "1051 Pacific Marina, Alameda, CA 94501"
    },
    {
      "name": "Lunasia Chinese Cuisine",
      "links": [
        {
          "name": "site",
          "URL": "http://lunasiadimsum.com/"
        },
        {
          "name": "Yelp",
          "URL": "https://www.yelp.com/biz/lunasia-chinese-cuisine-alhambra-3"
        }
      ],
      "lat": 34.09195,
      "lon": -118.1324,
      "city": "Alhambra",
      "address": "500 W Main St, Alhambra, CA 91801"
    },
    {
      "name": "Top Island Seafood Restaurant",
      "links": [
        {
          "name": "Yelp",
          "URL": "https://www.yelp.com/biz/top-island-seafood-restaurant-alhambra"
        }
      ],
      "lat": 34.077999,
      "lon": -118.115334,
      "city": "Alhambra",
      "address": "740 E Valley Blvd, Alhambra, CA 91801"
    },
    {
      "name": "World Seafood Restaurant",
      "links": [
        {
          "name": "Yelp",
          "URL": "https://www.yelp.com/biz/world-seafood-restaurant-alhambra"
        }
      ],
      "lat": 34.07815,
      "lon": -118.12245,
      "city": "Alhambra",
      "address": "1412 S Garfield Ave, Alhambra, CA 91801"
    },
    {
      "name": "Tin Tin Seafood Restaurant",
      "links": [
        {
          "name": "site",
          "URL": "http://tintinseafoodrestaurant.com/"
        },
        {
          "name": "Yelp",
          "URL": "https://www.yelp.com/biz/tin-tin-seafood-restaurant-anaheim"
        }
      ],
      "lat": 33.84295,
      "lon": -117.94163,
      "city": "Anaheim",
      "address": "669 N Euclid St, Anaheim, CA 92801"
    },
    {
      "name": "Capital Seafood",
      "links": [
        {
          "name": "Yelp",
          "URL": "https://www.yelp.com/biz/capital-seafood-arcadia"
        }
      ],
      "lat": 34.140932,
      "lon": -118.021702,
      "city": "Arcadia",
      "address": "333 E Huntington Dr, Arcadia, CA 91006"
    },
    {
      "name": "Chef Tony",
      "links": [
        {
          "name": "Eater LA",
          "URL": "https://la.eater.com/2021/9/22/22688701/chef-tony-arcadia-dim-sum-restaurant-opening"
        },
        {
          "name": "Yelp",
          "URL": "https://www.yelp.com/biz/chef-tony-dim-sum-arcadia"
        }
      ],
      "lat": 34.12752299295816,
      "lon": -118.05423980228818,
      "city": "Arcadia",
      "address": "1108 S Baldwin Ave b5 Arcadia, CA 91007"
    },
    {
      "name": "Full House Seafood Restaurant",
      "links": [
        {
          "name": "Yelp",
          "URL": "https://www.yelp.com/biz/full-house-seafood-restaurant-arcadia"
        }
      ],
      "lat": 34.13087,
      "lon": -118.05532,
      "city": "Arcadia",
      "address": "1220 S Golden W Ave, Arcadia, CA 91007"
    },
    {
      "name": "Sam Woo Cafe",
      "links": [
        {
          "name": "site",
          "URL": "https://www.samwoocafe.com/"
        },
        {
          "name": "Yelp",
          "URL": "https://www.yelp.com/biz/sam-woo-cafe-artesia"
        }
      ],
      "lat": 33.8574537540247,
      "lon": -118.08477737469147,
      "city": "Artesia",
      "address": "11688 S St Ste 105 Artesia, CA 90701"
    },
    {
      "name": "Seafood House",
      "links": [
        {
          "name": "Yelp",
          "URL": "https://www.yelp.com/biz/seafood-house-artesia"
        }
      ],
      "lat": 33.87891,
      "lon": -118.08242,
      "city": "Artesia",
      "address": "18329 S Pioneer Blvd, Artesia, CA 90701"
    },
    {
      "name": "Phoenix Caf√©",
      "links": [
        {
          "name": "site",
          "URL": "https://www.thebike.com/dine/phoenix_cafe.php"
        },
        {
          "name": "Yelp",
          "URL": "https://www.yelp.com/biz/phoenix-caf%C3%A9-bell-gardens-5"
        }
      ],
      "lat": 33.97325,
      "lon": -118.20236,
      "city": "Bell Gardens",
      "address": "888 Bicycle Casino Dr, Bell Gardens, CA 90201"
    },
    {
      "name": "Dumpling Express",
      "links": [
        {
          "name": "Yelp",
          "URL": "https://www.yelp.com/biz/dumpling-express-berkeley"
        }
      ],
      "lat": 37.86794,
      "lon": -122.25685,
      "city": "Berkeley",
      "address": "2328 Bowditch St, Berkeley, CA 94704"
    },
    {
      "name": "Capital Seafood",
      "links": [
        {
          "name": "The Infatuation",
          "URL": "https://www.theinfatuation.com/los-angeles/reviews/capital-seafood"
        },
        {
          "name": "Yelp",
          "URL": "https://www.yelp.com/biz/capital-seafood-beverly-hills-beverly-hills-2"
        }
      ],
      "lat": 34.0669,
      "lon": -118.37594,
      "city": "Beverly Hills",
      "address": "50 N La Cienega Blvd, Ste 13, Beverly Hills, CA 90211"
    },
    {
      "name": "Da Chef Noodle",
      "links": [
        {
          "name": "Yelp",
          "URL": "https://www.yelp.com/biz/da-chef-noodle-bermuda-dunes-3"
        }
      ],
      "lat": 33.75634,
      "lon": -116.30316,
      "city": "Bermuda Dunes",
      "address": "40100 Washington St Ste 141 Bermuda Dunes, CA 92203"
    },
    {
      "name": "Grand Harbor",
      "links": [
        {
          "name": "Yelp",
          "URL": "https://www.yelp.com/biz/grand-harbor-burlingame"
        }
      ],
      "lat": 37.597701,
      "lon": -122.363995,
      "city": "Burlingame",
      "address": "1492 Old Bayshore Hwy, Burlingame, CA 94010"
    },
    {
      "name": "HL Peninsula Pearl",
      "links": [
        {
          "name": "site",
          "URL": "https://www.hlpeninsula.com/"
        },
        {
          "name": "Yelp",
          "URL": "https://www.yelp.com/biz/hl-peninsula-pearl-burlingame-4"
        }
      ],
      "lat": 37.5995,
      "lon": -122.366492,
      "city": "Burlingame",
      "address": "1590 Old Bayshore Hwy Burlingame, CA 94010"
    },
    {
      "name": "Peking Inn Restaurant",
      "links": [
        {
          "name": "site",
          "URL": "http://www.pekinginnrestaurant.com/"
        },
        {
          "name": "Yelp",
          "URL": "https://www.yelp.com/biz/peking-inn-restaurant-camarillo"
        }
      ],
      "lat": 34.21961,
      "lon": -119.0551,
      "city": "Camarillo",
      "address": "330 N Lantana St, Ste 31, Camarillo, CA 93010"
    },
    {
      "name": "Tasty Dim Sum House",
      "links": [
        {
          "name": "site",
          "URL": "http://www.tastydimsumhouse.com/"
        }
      ],
      "lat": 34.00977873959505,
      "lon": -117.74183918698809,
      "city": "Chino Hills",
      "address": "2923 Chino Ave. H4, Chino Hills, CA 91709 "
    },
    {
      "name": "Four Seasons Chinese Restaurant",
      "links": [
        {
          "name": "Yelp",
          "URL": "https://www.yelp.com/biz/four-seasons-chinese-restaurant-clovis"
        }
      ],
      "lat": 36.83609,
      "lon": -119.70056,
      "city": "Clovis",
      "address": "342 N Clovis Ave, Clovis, CA 93612"
    },
    {
      "name": "Dim Sum King",
      "links": [
        {
          "name": "Yelp",
          "URL": "https://www.yelp.com/biz/dim-sum-king-daly-city"
        }
      ],
      "lat": 37.681854,
      "lon": -122.48747,
      "city": "Daly City",
      "address": "99 Skyline Plz Daly City, CA 94015"
    },
    {
      "name": "Koi Palace",
      "links": [
        {
          "name": "site",
          "URL": "http://koipalace.com/"
        }
      ],
      "lat": 37.666068,
      "lon": -122.466626,
      "city": "Daly City",
      "address": "365 Gellert Blvd, Daly City, CA 94015"
    },
    {
      "name": "Tai Yuan Seafood Restaurant",
      "links": [
        {
          "name": "site",
          "URL": "http://www.taiyuanrestaurant.com/"
        }
      ],
      "lat": 37.651367,
      "lon": -122.4684,
      "city": "Daly City",
      "address": "950 King Dr Ste 100 King Plaza Shopping Ctr Daly City, CA 94015"
    },
    {
      "name": "Tasty Box Bistro",
      "links": [
        {
          "name": "Yelp",
          "URL": "https://www.yelp.com/biz/tasty-box-diamond-bar"
        }
      ],
      "lat": 33.97484261742608,
      "lon": -117.83781188899117,
      "city": "Diamond Bar",
      "address": "2839 S Diamond Bar Blvd Diamond Bar, CA 91765"
    },
    {
      "name": "Golden Sand Harbor",
      "links": [
        {
          "name": "site",
          "URL": "http://goldensandharbor.com/"
        }
      ],
      "lat": 37.70727,
      "lon": -121.93474,
      "city": "Dublin",
      "address": "7745 Amador Valley Blvd, Dublin, CA 94568"
    },
    {
      "name": "Koi Palace",
      "links": [
        {
          "name": "site",
          "URL": "http://koipalace.com/"
        }
      ],
      "lat": 37.70516,
      "lon": -121.87621,
      "city": "Dublin",
      "address": "4288 Dublin Blvd, Ste 213, Ulferts Center, Dublin, CA 94568"
    },
    {
      "name": "Koi Palace Express",
      "links": [
        {
          "name": "site",
          "URL": "http://koipalace.com/"
        }
      ],
      "lat": 37.70516,
      "lon": -121.87621,
      "city": "Dublin",
      "address": "4288 Dublin Blvd, Ste 120, Dublin, CA 94568"
    },
    {
      "name": "Mayflower Restaurant",
      "links": [
        {
          "name": "Yelp",
          "URL": "https://www.yelp.com/biz/mayflower-restaurant-dublin"
        }
      ],
      "lat": 37.704098,
      "lon": -121.865952,
      "city": "Dublin",
      "address": "4086 Grafton St, Dublin, CA 94568"
    },
    {
      "name": "Well Season",
      "links": [
        {
          "name": "Yelp",
          "URL": "https://www.yelp.com/biz/well-season-elk-grove-2"
        }
      ],
      "lat": 38.427764,
      "lon": -121.417836,
      "city": "Elk Grove",
      "address": "9089 Bruceville Rd, Elk Grove, CA 95758"
    },
    {
      "name": "Hong Kong East Ocean Seafood",
      "links": [
        {
          "name": "site",
          "URL": "http://hkeo.us/"
        }
      ],
      "lat": 37.83746,
      "lon": -122.31486,
      "city": "Emeryville",
      "address": "3199 Powell St, Emeryville, CA 94608"
    },
    {
      "name": "Fat's Asia Bistro & Dim Sum Bar",
      "links": [
        {
          "name": "site",
          "URL": "https://fatsasiabistro.com/"
        }
      ],
      "lat": 38.647575,
      "lon": -121.115824,
      "city": "Folsom",
      "address": "2585 Iron Point Rd, Folsom, CA 95630"
    },
    {
      "name": "Pearl Bay Restaurant",
      "links": [
        {
          "name": "Yelp",
          "URL": "https://www.yelp.com/biz/pearl-bay-restaurant-fremont-2"
        }
      ],
      "lat": 37.50072,
      "lon": -121.97446,
      "city": "Fremont",
      "address": "43635 Boscell Rd, Fremont, CA 94538"
    },
    {
      "name": "New City Chinese Cuisine",
      "links": [
        {
          "name": "site",
          "URL": "https://www.newcitychinesefresnoca.com/"
        }
      ],
      "lat": 36.80914,
      "lon": -119.76109,
      "city": "Fresno",
      "address": "1484 E Shaw Ave, Fresno, CA 93710"
    },
    {
      "name": "Imperial Garden Restaurant",
      "links": [
        {
          "name": "site",
          "URL": "http://www.fresnoimperialgarden.com/"
        }
      ],
      "lat": 36.83512,
      "lon": -119.78907,
      "city": "Fresno",
      "address": "6640 N Blackstone Ave, Fresno, CA 93710"
    },
    {
      "name": "Crystal Dumplings",
      "links": [
        {
          "name": "Yelp",
          "URL": "https://www.yelp.com/biz/crystal-dumplings-garden-grove"
        }
      ],
      "lat": 33.77362469183653,
      "lon": -117.97117964449566,
      "city": "Garden Grove",
      "address": "9240 Garden Grove Blvd Ste 12 Garden Grove, CA 92844"
    },
    {
      "name": "Tasty BBQ & Dim Sum",
      "links": [
        {
          "name": "Yelp",
          "URL": "https://www.yelp.com/biz/tasty-bbq-and-dim-sum-garden-grove"
        }
      ],
      "lat": 33.77731,
      "lon": -117.95719,
      "city": "Garden Grove",
      "address": "13861 Brookhurst St, Garden Grove, CA 92843"
    },
    {
      "name": "Seafood Cove",
      "links": [
        {
          "name": "site",
          "URL": "https://www.seafood-cove.com/"
        }
      ],
      "lat": 33.759573,
      "lon": -117.979956,
      "city": "Garden Grove",
      "address": "8547 Westminster Ave, Garden Grove, CA 92844"
    },
    {
      "name": "Sea Empress",
      "links": [
        {
          "name": "Yelp",
          "URL": "https://www.seaempressrestaurant.com/"
        }
      ],
      "lat": 33.88874,
      "lon": -118.30783,
      "city": "Gardena",
      "address": "1636 W Redondo Beach Blvd, Gardena, CA 90247"
    },
    {
      "name": "Ginger Cafe",
      "links": [
        {
          "name": "site",
          "URL": "https://gingercafe.net/"
        }
      ],
      "lat": 37.02626,
      "lon": -121.56763,
      "city": "Gilroy",
      "address": "8657 San Ysidro Ave, Gilroy, CA 95020"
    },
    {
      "name": "Tin Pot Bistro",
      "links": [
        {
          "name": "site",
          "URL": "http://www.tinsteapotbistro.com/"
        }
      ],
      "lat": 37.66094,
      "lon": -122.08575,
      "city": "Hayward",
      "address": "320 Jackson St, Hayward, CA 94544"
    },
    {
      "name": "Capital Seafood",
      "links": [
        {
          "name": "site",
          "URL": "https://spectrum.capital-seafood.com/"
        }
      ],
      "lat": 33.649594259325504,
      "lon": -117.74332244264612,
      "city": "Irvine",
      "address": "770 Spectrum Center Dr, Irvine, CA"
    },
    {
      "name": "Furiwa To Go",
      "links": [
        {
          "name": "site",
          "URL": "https://furiwa-togo.square.site/"
        }
      ],
      "lat": 33.65965374289795,
      "lon": -117.86013743123632,
      "city": "Irvine",
      "address": "19530 Jamboree Road Irvine, CA 92612"
    },
    {
      "name": "Tim Ho Wan",
      "links": [
        {
          "name": "site",
          "URL": "http://timhowanusa.com/"
        }
      ],
      "lat": 33.69311,
      "lon": -117.83872,
      "city": "Irvine",
      "address": "2700 Alton Pkwy, Ste 127, Irvine, CA 92606"
    },
    {
      "name": "Irvine China Garden",
      "links": [
        {
          "name": "site",
          "URL": "https://irvinechinagarden.com/"
        }
      ],
      "lat": 33.6878,
      "lon": -117.77117,
      "city": "Irvine",
      "address": "14825 Jeffrey Rd, Irvine, CA 92618"
    },
    {
      "name": "Bao Dim Sum House",
      "links": [
        {
          "name": "site",
          "URL": "http://www.baodimsum.com/"
        }
      ],
      "lat": 34.07719,
      "lon": -118.38511,
      "city": "Los Angeles",
      "address": "8256 Beverly Blvd, Los Angeles, CA 90048"
    },
    {
      "name": "Iron Teapot",
      "links": [
        {
          "name": "site",
          "URL": "https://www.iron-teapot.com/"
        }
      ],
      "lat": 34.0207715,
      "lon": -118.4050632,
      "city": "Los Angeles",
      "address": "10306 Venice Blvd Los Angeles, CA 90034"
    },
    {
      "name": "ixlb Dim Sum Eats",
      "links": [
        {
          "name": "site",
          "URL": "http://www.ixlbdimsumeats.com/"
        },
        {
          "name": "The Infatuation",
          "URL": "https://www.theinfatuation.com/los-angeles/reviews/ixlb-dimsum-eats"
        }
      ],
      "lat": 34.09781,
      "lon": -118.31832,
      "city": "Los Angeles",
      "address": "5900 Sunset Blvd, Los Angeles, CA 90028"
    },
    {
      "name": "Golden Dragon Restaurant",
      "links": [
        {
          "name": "Yelp",
          "URL": "https://www.yelp.com/biz/golden-dragon-restaurant-los-angeles"
        }
      ],
      "lat": 34.0655,
      "lon": -118.23621,
      "city": "Los Angeles",
      "address": "960 N Broadway, Los Angeles, CA 90012"
    },
    {
      "name": "Long's Family Pastry",
      "links": [
        {
          "name": "Endo Edibles",
          "URL": "https://endoedibles.com/?p=115582"
        }
      ],
      "lat": 34.06052382267179,
      "lon": -118.23785111565219,
      "city": "Los Angeles",
      "address": "715 N Spring St Los Angeles, CA 90012"
    },
    {
      "name": "Palace Seafood & Dim Sum",
      "links": [
        {
          "name": "site",
          "URL": "https://www.thepalaceseafooddimsum.com/"
        }
      ],
      "lat": 34.04944,
      "lon": -118.46147,
      "city": "Los Angeles",
      "address": "11701 Wilshire Blvd Los Angeles, CA 90025"
    },
    {
      "name": "Tian's Dim Sum & Fast Food",
      "links": [
        {
          "name": "Yelp",
          "URL": "https://www.yelp.com/biz/tians-dim-sum-and-fast-food-los-angeles-2"
        }
      ],
      "lat": 34.06217,
      "lon": -118.23986,
      "city": "Los Angeles",
      "address": "809 N Hill St, Los Angeles, CA 90012"
    },
    {
      "name": "Yum Cha Palace",
      "links": [
        {
          "name": "site",
          "URL": "https://www.yumchamenlopark.com/"
        }
      ],
      "lat": 37.45713,
      "lon": -122.19003,
      "city": "Menlo Park",
      "address": "1039 El Camino Real, Menlo Park, CA 94025"
    },
    {
      "name": "Asian Pearl Seafood Restaurant",
      "links": [
        {
          "name": "site",
          "URL": "https://www.newasianpearlmillbrae.com/"
        }
      ],
      "lat": 37.61336,
      "lon": -122.404885,
      "city": "Millbrae",
      "address": "1671 El Camino Real, Millbrae, CA 94030"
    },
    {
      "name": "The Kitchen",
      "links": [
        {
          "name": "Yelp",
          "URL": "https://www.yelp.com/biz/the-kitchen-millbrae"
        }
      ],
      "lat": 37.601002,
      "lon": -122.390892,
      "city": "Millbrae",
      "address": "279 El Camino Real, Millbrae, CA 94030"
    },
    {
      "name": "Tai Wu Restaurant",
      "links": [
        {
          "name": "Yelp",
          "URL": "https://www.yelp.com/biz/tai-wu-restaurant-millbrae-2"
        }
      ],
      "lat": 37.601891,
      "lon": -122.390704,
      "city": "Millbrae",
      "address": "300 El Camino Real, Millbrae, CA 94030"
    },
    {
      "name": "Zen Peninsula",
      "links": [
        {
          "name": "site",
          "URL": "http://zenpeninsula.com/"
        }
      ],
      "lat": 37.607769,
      "lon": -122.398332,
      "city": "Millbrae",
      "address": "1180 El Camino Real, Millbrae, CA 94030"
    },
    {
      "name": "Koi Palace",
      "links": [
        {
          "name": "site",
          "URL": "http://koipalace.com/"
        }
      ],
      "lat": 37.41922,
      "lon": -121.91582,
      "city": "Milpitas",
      "address": "768 Barber Ln, Milpitas, CA 95035"
    },
    {
      "name": "Mayflower Restaurant",
      "links": [
        {
          "name": "site",
          "URL": "http://mayflower-seafood.com/"
        }
      ],
      "lat": 37.421669,
      "lon": -121.916397,
      "city": "Milpitas",
      "address": "428 Barber Ln, Milpitas, CA 95035"
    },
    {
      "name": "New Hong Kwok",
      "links": [
        {
          "name": "Yelp",
          "URL": "https://www.yelp.com/biz/new-hwong-kok-milpitas"
        }
      ],
      "lat": 37.45528,
      "lon": -121.91164,
      "city": "Milpitas",
      "address": "1705 N Milpitas Blvd, Milpitas, CA 95035"
    },
    {
      "name": "Dynasty Garden",
      "links": [
        {
          "name": "site",
          "URL": "http://www.dynastytogo.com/"
        }
      ],
      "lat": 37.689008,
      "lon": -120.975968,
      "city": "Modesto",
      "address": "3500 Coffee Rd, Modesto, CA 95355"
    },
    {
      "name": "Atlantic Seafood & Dim Sum",
      "links": [
        {
          "name": "Yelp",
          "URL": "https://www.yelp.com/biz/atlantic-seafood-and-dim-sum-restaurant-monterey-park-2"
        }
      ],
      "lat": 34.06828,
      "lon": -118.13368,
      "city": "Monterey Park",
      "address": "500 N Atlantic Blvd Ste 200, Monterey Park, CA 91754"
    },
    {
      "name": "Capital Seafood",
      "links": [
        {
          "name": "Yelp",
          "URL": "https://www.yelp.com/biz/capital-seafood-restaurant-monterey-park"
        }
      ],
      "lat": 34.0628,
      "lon": -118.1328,
      "city": "Monterey Park",
      "address": "755 W Garvey Ave, Monterey Park, CA 91754"
    },
    {
      "name": "Capital Dim Sum & BBQ",
      "links": [
        {
          "name": "Yelp",
          "URL": "https://www.yelp.com/biz/capital-dim-sum-and-bbq-monterey-park-3"
        }
      ],
      "lat": 34.0632,
      "lon": -118.13296,
      "city": "Monterey Park",
      "address": "727 W Garvey Ave, Monterey Park, CA 91754"
    },
    {
      "name": "Dim Sum Express",
      "links": [
        {
          "name": "Yelp",
          "URL": "https://www.yelp.com/biz/dim-sum-express-monterey-park"
        }
      ],
      "lat": 34.0658,
      "lon": -118.12254,
      "city": "Monterey Park",
      "address": "326 N Garfield Ave, Monterey Park, CA 91754"
    },
    {
      "name": "Elite",
      "links": [
        {
          "name": "site",
          "URL": "https://eliterestaurantchinese.com/"
        }
      ],
      "lat": 34.054125,
      "lon": -118.136006,
      "city": "Monterey Park",
      "address": "700 S Atlantic Blvd, Monterey Park, CA 91754"
    },
    {
      "name": "Monterey Palace Restaurant",
      "links": [
        {
          "name": "Yelp",
          "URL": "https://www.yelp.com/biz/monterey-palace-restaurant-monterey-park"
        }
      ],
      "lat": 34.06283,
      "lon": -118.10908,
      "city": "Monterey Park",
      "address": "1001 E Garvey Ave, Monterey Park, CA 91755"
    },
    {
      "name": "NBC Seafood Restaurant",
      "links": [
        {
          "name": "site",
          "URL": "http://www.nbcrestaurant.com/"
        },
        {
          "name": "The Infatuation",
          "URL": "https://www.theinfatuation.com/los-angeles/reviews/nbc-seafood-restaurant"
        }
      ],
      "lat": 34.05868,
      "lon": -118.13318,
      "city": "Monterey Park",
      "address": "404 S Atlantic Blvd, Monterey Park, CA 91754"
    },
    {
      "name": "Fu Lam Mum",
      "links": [
        {
          "name": "site",
          "URL": "http://www.fulammummountainview.com/"
        }
      ],
      "lat": 37.394279,
      "lon": -122.078355,
      "city": "Mountain View",
      "address": "153 Castro St, Mountain View, CA 94041"
    },
    {
      "name": "Empress M",
      "links": [
        {
          "name": "site",
          "URL": "https://empressm.us/"
        }
      ],
      "lat": 38.2905022888356,
      "lon": -122.27527720353929,
      "city": "Napa",
      "address": "221 Silverado Trl Napa, CA 94559"
    },
    {
      "name": "A&W Seafood Restaurant",
      "links": [
        {
          "name": "Yelp",
          "URL": "https://www.yelp.com/biz/a-and-w-seafood-restaurant-northridge-4"
        }
      ],
      "lat": 34.23934,
      "lon": -118.53562,
      "city": "Northridge",
      "address": "9306 Reseda Blvd, Northridge, CA 91324"
    },
    {
      "name": "The Best Dim Sum & Pastry",
      "links": [
        {
          "name": "Yelp",
          "URL": "https://www.yelp.com/biz/the-best-dim-sum-and-pastry-oakland"
        }
      ],
      "lat": 37.79327,
      "lon": -122.25297,
      "city": "Oakland",
      "address": "723 E 12th St, Oakland, CA 94606"
    },
    {
      "name": "Ming's Tasty Restaurant",
      "links": [
        {
          "name": "site",
          "URL": "http://www.mingstastyres.com/"
        }
      ],
      "lat": 37.80043,
      "lon": -122.27046,
      "city": "Oakland",
      "address": "940 Webster St, Oakland, CA 94607"
    },
    {
      "name": "Restaurant Peony",
      "links": [
        {
          "name": "site",
          "URL": "https://peonyrestaurant.com/"
        }
      ],
      "lat": 37.80044,
      "lon": -122.27184,
      "city": "Oakland",
      "address": "388 9th St, Ste 288, Oakland, CA 94607"
    },
    {
      "name": "Tao Yuen Pastry",
      "links": [
        {
          "name": "Yelp",
          "URL": "https://www.yelp.com/biz/tao-yuen-pastry-oakland"
        }
      ],
      "lat": 37.80018,
      "lon": -122.2722,
      "city": "Oakland",
      "address": "816 Franklin St, Oakland, CA 94607"
    },
    {
      "name": "Yummy Dim Sum",
      "links": [
        {
          "name": "Yelp",
          "URL": "https://www.yelp.com/biz/yummy-dim-sum-oakland"
        }
      ],
      "lat": 37.80012,
      "lon": -122.26972,
      "city": "Oakland",
      "address": "307 10th St, Oakland, CA 94607"
    },
    {
      "name": "Get Dim Sum",
      "links": [
        {
          "name": "Yelp",
          "URL": "https://www.yelp.com/biz/get-sum-dim-sum-ontario"
        }
      ],
      "lat": 34.08611016361158,
      "lon": -117.66944128681554,
      "city": "Ontario",
      "address": "1520 N Mountain Ave Ste 109 Ontario, CA 91762"
    },
    {
      "name": "Lunasia Dim Sum House",
      "links": [
        {
          "name": "site",
          "URL": "http://www.lunasiadimsum.com/"
        }
      ],
      "lat": 34.14589,
      "lon": -118.1345,
      "city": "Pasadena",
      "address": "239 E Colorado Blvd, Pasadena, CA 91101"
    },
    {
      "name": "King Wah",
      "links": [
        {
          "name": "Yelp",
          "URL": "https://www.yelp.com/biz/king-wah-pleasanton"
        }
      ],
      "lat": 37.69715,
      "lon": -121.85121,
      "city": "Pleasonton",
      "address": "2705 Stoneridge Dr, Pacific Pearl, Pleasanton, CA 94588"
    },
    {
      "name": "Asian Pearl Seafood Restaurant",
      "links": [
        {
          "name": "site",
          "URL": "https://asianpearl.yolasite.com/"
        }
      ],
      "lat": 37.898405651060756,
      "lon": -122.30763287636809,
      "city": "Richmond",
      "address": "3288 Pierce St Ste A118 Pacific East Mall Richmond, CA 94804"
    },
    {
      "name": "Saigon Seafood Harbor Restaurant",
      "links": [
        {
          "name": "site",
          "URL": "http://saigonharbors.com/"
        }
      ],
      "lat": 37.900184,
      "lon": -122.308888,
      "city": "Richmond",
      "address": "3150 Pierce St Richmond, CA 94804"
    },
    {
      "name": "China Republic",
      "links": [
        {
          "name": "site",
          "URL": "http://www.eatchinarepublic.com/"
        }
      ],
      "lat": 34.1069,
      "lon": -117.526,
      "city": "Rancho Cucamonga",
      "address": "12806 Foothill Blvd, Rancho Cucamonga, CA 91739"
    },
    {
      "name": "888 Seafood Restaurant",
      "links": [
        {
          "name": "Yelp",
          "URL": "https://www.yelp.com/biz/888-seafood-restaurant-rosemead"
        }
      ],
      "lat": 34.079777,
      "lon": -118.06074,
      "city": "Rosemead",
      "address": "8450 E Valley Blvd, Ste 121, Rosemead, CA 91770"
    },
    {
      "name": "Longo Seafood Restaurant",
      "links": [
        {
          "name": "Yelp",
          "URL": "https://www.yelp.com/biz/longo-seafood-restaurant-rosemead"
        }
      ],
      "lat": 34.06216,
      "lon": -118.10452,
      "city": "Rosemead",
      "address": "7540 Garvey Ave, Ste A, Rosemead, CA 91770"
    },
    {
      "name": "Lucky 1 Restaurant",
      "links": [
        {
          "name": "site",
          "URL": "https://www.lucky1restaurant.com/"
        },
        {
          "name": "The Infatuation",
          "URL": "https://www.theinfatuation.com/los-angeles/reviews/lucky-1-dim-sum"
        }
      ],
      "lat": 34.06265,
      "lon": -118.08831,
      "city": "Rosemead",
      "address": "7637 Garvey Ave, Rosemead, CA 91770"
    },
    {
      "name": "Sea Harbour",
      "links": [
        {
          "name": "Yelp",
          "URL": "https://www.yelp.com/biz/sea-harbour-rosemead"
        }
      ],
      "lat": 34.07984,
      "lon": -118.07363,
      "city": "Rosemead",
      "address": "3939 Rosemead Blvd, Rosemead, CA 91770"
    },
    {
      "name": "Fat's Asia Bistro & Dim Sum Bar",
      "links": [
        {
          "name": "site",
          "URL": "https://fatsasiabistro.com/"
        }
      ],
      "lat": 38.75115,
      "lon": -121.25123,
      "city": "Roseville",
      "address": "1500 Eureka Rd  Roseville, CA 95661"
    },
    {
      "name": "All That 'N Dim Sum",
      "links": [
        {
          "name": "site",
          "URL": "https://allthatndimsum.com/"
        }
      ],
      "lat": 33.99581096200908,
      "lon": -117.90019298867023,
      "city": "Rowland Heights",
      "address": "18518 E Gale Ave Rowland Heights, CA 91748"
    },
    {
      "name": "New Capital Seafood",
      "links": [
        {
          "name": "Yelp",
          "URL": "https://www.yelp.com/biz/new-capital-seafood-restaurant-rowland-heights-5"
        }
      ],
      "lat": 33.99350076975188,
      "lon": -117.90365179024602,
      "city": "Rowland Heights",
      "address": "1330 S Fullerton Rd Ste 207 Rowland Heights, CA 91748"
    },
    {
      "name": "ABC Bakery",
      "links": [
        {
          "name": "site",
          "URL": "https://abcbakerysac.com/"
        }
      ],
      "lat": 38.496969519537295,
      "lon": -121.50941268669641,
      "city": "Sacramento",
      "address": "1309 Florin Rd Ste F Sacramento, CA 95831"
    },
    {
      "name": "Dim Dim Food",
      "links": [
        {
          "name": "Yelp",
          "URL": "https://www.yelp.com/biz/dim-dim-food-sacramento"
        }
      ],
      "lat": 38.485844533048834,
      "lon": -121.53456064436882,
      "city": "Sacramento",
      "address": "7585 Rush River Dr Ste 680 The Promenade Shopping Center Sacramento, CA 95831"
    },
    {
      "name": "Dim Sum House",
      "links": [
        {
          "name": "Yelp",
          "URL": "https://www.yelp.com/biz/dim-sum-house-sacramento"
        }
      ],
      "lat": 38.55793,
      "lon": -121.47791,
      "city": "Sacramento",
      "address": "2631 Broadway, Sacramento, CA 95818"
    },
    {
      "name": "Hong Kong Islander",
      "links": [
        {
          "name": "site",
          "URL": "https://www.hongkongislandersac.com/"
        }
      ],
      "lat": 38.52118,
      "lon": -121.49832,
      "city": "Sacramento",
      "address": "5675 Freeport Blvd, Sacramento, CA 95822"
    },
    {
      "name": "Happy Garden",
      "links": [
        {
          "name": "site",
          "URL": "http://www.happygardensac.com/"
        }
      ],
      "lat": 38.511432,
      "lon": -121.436237,
      "city": "Sacramento",
      "address": "5731 Stockton Blvd, Sacramento, CA 95824"
    },
    {
      "name": "Lam Kwong Market",
      "links": [
        {
          "name": "site",
          "URL": "http://www.themenupage.com/restaurant/Lam-Kwong-Deli-and-Market/113/0"
        }
      ],
      "lat": 38.567836,
      "lon": -121.495797,
      "city": "Sacramento",
      "address": "2031 12th St, Sacramento, CA 95818"
    },
    {
      "name": "Ming Dynasty",
      "links": [
        {
          "name": "site",
          "URL": "https://www.mingdynastysac.com/"
        }
      ],
      "lat": 38.56319,
      "lon": -121.49727,
      "city": "Sacramento",
      "address": "1211 Broadway, Sacramento, CA 95818"
    },
    {
      "name": "Ming Hui Dim Sum 2",
      "links": [
        {
          "name": "Yelp",
          "URL": "https://www.yelp.com/biz/ming-hui-dim-sum-2-sacramento-2"
        }
      ],
      "lat": 38.52959,
      "lon": -121.49575,
      "city": "Sacramaneto",
      "address": "4940 Freeport Blvd Sacramento, CA 95822"
    },
    {
      "name": "Yue Huang",
      "links": [
        {
          "name": "site",
          "URL": "https://www.yuehuangdimsum.com/"
        }
      ],
      "lat": 38.638359,
      "lon": -121.505331,
      "city": "Sacramento",
      "address": "3860 Truxel Rd, Sacramento, CA 95834"
    },
    {
      "name": "Asian Pearl",
      "links": [
        {
          "name": "Yelp",
          "URL": "https://www.yelp.com/biz/asian-pearl-restaurant-sacramento-5"
        }
      ],
      "lat": 38.531121,
      "lon": -121.445433,
      "city": "Sacramento",
      "address": "6821 Stockton Blvd, Ste 165, Sacramento, CA 95823"
    },
    {
      "name": "Tea Cup House",
      "links": [
        {
          "name": "Yelp",
          "URL": "https://www.yelp.com/biz/tea-cup-house-sacramento-2"
        }
      ],
      "lat": 38.569297,
      "lon": -121.48172,
      "city": "Sacramento",
      "address": "1614 21st St, Sacramento, CA 95811"
    },
    {
      "name": "King Palace",
      "links": [
        {
          "name": "Yelp",
          "URL": "https://www.yelp.com/biz/king-palace-restaurant-sacramento"
        }
      ],
      "lat": 38.520881,
      "lon": -121.440596,
      "city": "Sacramento",
      "address": "5829 Stockton Blvd, Sacramento, CA 95824"
    },
    {
      "name": "Yum Cha Cafe",
      "links": [
        {
          "name": "Yelp",
          "URL": "https://www.yelp.com/biz/yum-cha-cafe-sacramento"
        }
      ],
      "lat": 38.555235,
      "lon": -121.427413,
      "city": "Sacramento",
      "address": "6930 65th St, Sacramento, CA 95823"
    },
    {
      "name": "Rice Bowl Restaurant",
      "links": [
        {
          "name": "Yelp",
          "URL": "https://www.yelp.com/biz/rice-bowl-restaurant-sacramento"
        }
      ],
      "lat": 38.495675,
      "lon": -121.483449,
      "city": "Sacramento",
      "address": "2378 Florin Rd, Sacramento, CA 95822"
    },
    {
      "name": "Diamond Palace",
      "links": [
        {
          "name": "site",
          "URL": "https://diamondpalaceusa.com/"
        },
        {
          "name": "San Diego Reader",
          "URL": "https://www.sandiegoreader.com/news/2022/dec/27/feast-dim-sum-closer-home-diamond-palace/"
        }
      ],
      "lat": 32.747961452683995,
      "lon": -117.07890320219337,
      "city": "San Diego",
      "address": "3993 54th St San Diego, CA 92105"
    },
    {
      "name": "Emerald Chinese Cuisine",
      "links": [
        {
          "name": "Yelp",
          "URL": "https://www.yelp.com/biz/emerald-chinese-cuisine-san-diego"
        }
      ],
      "lat": 32.811251,
      "lon": -117.152552,
      "city": "San Diego",
      "address": "3709 Convoy St #101, San Diego, CA 92111"
    },
    {
      "name": "Golden Island",
      "links": [
        {
          "name": "site",
          "URL": "https://www.goldenislanddimsum.com/"
        }
      ],
      "lat": 32.91127,
      "lon": -117.14455,
      "city": "San Diego",
      "address": "10660 Camino Ruiz, San Diego, CA 92126"
    },
    {
      "name": "Hong Kong BBQ & Dim Sum",
      "links": [
        {
          "name": "Yelp",
          "URL": "https://www.yelp.com/biz/hong-kong-bbq-and-dim-sum-san-diego-2"
        }
      ],
      "lat": 32.90925,
      "lon": -117.14555,
      "city": "San Diego",
      "address": "10550 Camino Ruiz, San Diego, CA 92126"
    },
    {
      "name": "Imperial Mandarin Restaurant",
      "links": [
        {
          "name": "Yelp",
          "URL": "https://www.yelp.com/biz/imperial-mandarin-restaurant-san-diego"
        }
      ],
      "lat": 32.81486,
      "lon": -117.15462,
      "city": "San Diego",
      "address": "3904 Convoy St #102, San Diego, CA 92111"
    },
    {
      "name": "Jasmine Seafood Restaurant",
      "links": [
        {
          "name": "site",
          "URL": "http://jasmineseafood.com/"
        }
      ],
      "lat": 32.823905,
      "lon": -117.154736,
      "city": "San Diego",
      "address": "4609 Convoy St A, San Diego, CA 92111"
    },
    {
      "name": "Tom's Chinese BBQ",
      "links": [
        {
          "name": "Yelp",
          "URL": "https://www.yelp.com/biz/toms-chinese-bbq-san-diego-2"
        }
      ],
      "lat": 32.74987,
      "lon": -117.09951,
      "city": "San Diego",
      "address": "4414 University Ave, San Diego, CA 92105"
    },
    {
      "name": "Dim Sum Inn",
      "links": [
        {
          "name": "site",
          "URL": "http://dimsuminn.com/"
        }
      ],
      "lat": 36.71101,
      "lon": -121.6541,
      "city": "Salinas",
      "address": "1938 N Main St, Salinas, CA 93906"
    },
    {
      "name": "Begoni Bistro",
      "links": [
        {
          "name": "site",
          "URL": "http://www.begoni-bistro.com/"
        }
      ],
      "lat": 37.796,
      "lon": -122.40555,
      "city": "San Francisco",
      "address": "615 Jackson St San Francisco, CA 94133"
    },
    {
      "name": "Chase Luck Bakery",
      "links": [
        {
          "name": "Yelp",
          "URL": "https://www.yelp.com/biz/chase-luck-bakery-san-francisco"
        }
      ],
      "lat": 37.723701,
      "lon": -122.456657,
      "city": "San Francisco",
      "address": "1325 Ocean Ave San Francisco, CA 94112"
    },
    {
      "name": "City View Restaurant",
      "links": [
        {
          "name": "site",
          "URL": "http://cityviewdimsum.com/"
        }
      ],
      "lat": 37.794151,
      "lon": -122.404427,
      "city": "San Francisco",
      "address": "662 Commercial St San Francisco, CA 94111"
    },
    {
      "name": "Clement BBQ",
      "links": [
        {
          "name": "Yelp",
          "URL": "https://www.yelp.com/biz/clement-bbq-san-francisco-2"
        }
      ],
      "lat": 37.782734,
      "lon": -122.465846,
      "city": "San Francisco",
      "address": "617 Clement St San Francisco, CA 9411"
    },
    {
      "name": "Delicious Dim Sum",
      "links": [
        {
          "name": "Yelp",
          "URL": "https://www.yelp.com/biz/delicious-dim-sum-san-francisco"
        }
      ],
      "lat": 37.796059,
      "lon": -122.407539,
      "city": "San Francisco",
      "address": "752 Jackson St, San Francisco, CA 94133"
    },
    {
      "name": "Dim Sum Bistro",
      "links": [
        {
          "name": "site",
          "URL": "http://dim-sum-bistro.com/"
        }
      ],
      "lat": 37.79754,
      "lon": -122.40816,
      "city": "San Francisco",
      "address": "675 Broadway St San Francisco, CA 94133"
    },
    {
      "name": "Dim Sum Club",
      "links": [
        {
          "name": "site",
          "URL": "http://dimsumclub-sf.com/"
        }
      ],
      "lat": 37.74238,
      "lon": -122.49005,
      "city": "San Francisco",
      "address": "2237 Taraval St San Francisco, CA "
    },
    {
      "name": "Dim Sum Corner",
      "links": [
        {
          "name": "Yelp",
          "URL": "https://www.yelp.com/biz/dim-sum-corner-san-francisco-2"
        }
      ],
      "lat": 37.792641,
      "lon": -122.40611,
      "city": "San Francisco",
      "address": "601 Grant Ave San Francisco, CA 94108"
    },
    {
      "name": "Dim Sum King",
      "links": [
        {
          "name": "Yelp",
          "URL": "https://www.yelp.com/biz/dim-sum-king-san-francisco"
        }
      ],
      "lat": 37.723610482476474,
      "lon": -122.43544444568748,
      "city": "San Francisco",
      "address": "4675 Mission St San Francisco, CA 94112"
    },
    {
      "name": "Dim Sum Kitchen",
      "links": [
        {
          "name": "site",
          "URL": "https://www.dimsum-kitchen.com/"
        }
      ],
      "lat": 37.729655,
      "lon": -122.404725,
      "city": "San Francisco",
      "address": "2520 San Bruno Ave, San Francisco, CA 94134"
    },
    {
      "name": "Dol Ho",
      "links": [
        {
          "name": "Yelp",
          "URL": "https://www.yelp.com/biz/dol-ho-san-francisco"
        }
      ],
      "lat": 37.79679,
      "lon": -122.40871,
      "city": "San Francisco",
      "address": "808 Pacific Ave, San Francisco, CA 94133"
    },
    {
      "name": "Dragon Beaux",
      "links": [
        {
          "name": "site",
          "URL": "http://dragonbeaux.com/"
        }
      ],
      "lat": 37.780491,
      "lon": -122.480713,
      "city": "San Francisco",
      "address": "5700 Geary Blvd, San Francisco, CA 94121"
    },
    {
      "name": "Dumpling Time",
      "links": [
        {
          "name": "site",
          "URL": "https://dumplingtime.com/"
        }
      ],
      "lat": 37.76986,
      "lon": -122.40223,
      "city": "San Francisco",
      "address": "11 Division St, San Francisco, CA 94103"
    },
    {
      "name": "Feng Ze Yuan",
      "links": [
        {
          "name": "Yelp",
          "URL": "https://www.yelp.com/biz/feng-ze-yuan-san-francisco"
        }
      ],
      "lat": 37.775172,
      "lon": -122.50612,
      "city": "San Francisco",
      "address": "4401 Balboa St San Francisco, CA 94121"
    },
    {
      "name": "Golden Coast Restaurant",
      "links": [
        {
          "name": "Yelp",
          "URL": "https://www.yelp.com/biz/golden-coast-restaurant-san-francisco"
        }
      ],
      "lat": 37.724718,
      "lon": -122.458883,
      "city": "San Francisco",
      "address": "1540 Ocean Ave San Francisco, CA 94112"
    },
    {
      "name": "Good Luck Dim Sum",
      "links": [
        {
          "name": "Yelp",
          "URL": "https://www.yelp.com/biz/good-luck-dim-sum-san-francisco"
        }
      ],
      "lat": 37.783096,
      "lon": -122.467201,
      "city": "San Francisco",
      "address": "736 Clement St, San Francisco, CA 94118"
    },
    {
      "name": "Good Mong Kok Bakery",
      "links": [
        {
          "name": "site",
          "URL": "https://www.goodmongkok.com/"
        }
      ],
      "lat": 37.795456,
      "lon": -122.408356,
      "city": "San Francisco",
      "address": "1039 Stockton St, San Francisco, CA 94108"
    },
    {
      "name": "Gourmet Dim Sum and Cafe",
      "links": [
        {
          "name": "Yelp",
          "URL": "https://www.yelp.com/biz/gourmet-dim-sum-and-cafe-san-francisco"
        }
      ],
      "lat": 37.78268,
      "lon": -122.466346,
      "city": "San Francisco",
      "address": "651 Clement St San Francisco, CA 94118"
    },
    {
      "name": "Great Eastern Restaurant",
      "links": [
        {
          "name": "site",
          "URL": "http://www.greateasternsf.com/"
        }
      ],
      "lat": 37.796028,
      "lon": -122.405968,
      "city": "San Francisco",
      "address": "649 Jackson St San Francisco, CA 94133"
    },
    {
      "name": "Hang Ah Tea Room",
      "links": [
        {
          "name": "site",
          "URL": "http://www.hangah1920.com/"
        }
      ],
      "lat": 37.793357,
      "lon": -122.407488,
      "city": "San Francisco",
      "address": "1 Pagoda Pl San Francisco, CA 94108"
    },
    {
      "name": "Happy Bakery",
      "links": [
        {
          "name": "Yelp",
          "URL": "https://www.yelp.com/biz/happy-bakery-san-francisco-2"
        }
      ],
      "lat": 37.763207,
      "lon": -122.482224,
      "city": "San Francisco",
      "address": "2249 Irving St San Francisco, CA 94122"
    },
    {
      "name": "Harbor Villa Restaurant",
      "links": [
        {
          "name": "Yelp",
          "URL": "https://www.yelp.com/biz/harbor-villa-restaurant-san-francisco-3"
        }
      ],
      "lat": 37.743378,
      "lon": -122.439524,
      "city": "San Francisco",
      "address": "5238 Diamond Heights Blvd San Francisco, CA 94131"
    },
    {
      "name": "Harborview Restaurant & Bar",
      "links": [
        {
          "name": "site",
          "URL": "https://harborviewsf.com/"
        }
      ],
      "lat": 37.79556,
      "lon": -122.39613,
      "city": "San Francisco",
      "address": "4 Embarcadero Ctr San Francisco, CA 94111"
    },
    {
      "name": "Hing Wang Bakery",
      "links": [
        {
          "name": "Yelp",
          "URL": "https://www.yelp.com/biz/hing-wang-bakery-san-francisco"
        }
      ],
      "lat": 37.762057,
      "lon": -122.465879,
      "city": "San Francisco",
      "address": "339 Judah St San Francisco, CA 94122"
    },
    {
      "name": "Hong Kong Lounge",
      "links": [
        {
          "name": "site",
          "URL": "https://www.lhklounge.com/"
        },
        {
          "name": "San Francisco Standard",
          "URL": "https://sfstandard.com/arts-culture/acclaimed-sf-dim-sum-restaurant-has-been-reborn-in-another-neighborhood/"
        }
      ],
      "lat": 37.78084,
      "lon": -122.47664,
      "city": "San Francisco",
      "address": "5322 Geary Blvd, San Francisco, CA 94121"
    },
    {
      "name": "Hong Kong Lounge Bistro",
      "links": [
        {
          "name": "site",
          "URL": "https://hkloungebistro.com/"
        }
      ],
      "lat": 37.776356323610635,
      "lon": -122.40881587354167,
      "city": "San Francisco",
      "address": "1136 Folsom St San Francisco, CA 94103"
    },
    {
      "name": "House of Dim Sum",
      "links": [
        {
          "name": "Yelp",
          "URL": "https://www.yelp.com/biz/house-of-dim-sum-san-francisco"
        }
      ],
      "lat": 37.79577,
      "lon": -122.40726,
      "city": "San Francisco",
      "address": "735 Jackson St San Francisco, CA 94133"
    },
    {
      "name": "Koi Palace Express",
      "links": [
        {
          "name": "site",
          "URL": "https://koipalace.com/"
        }
      ],
      "lat": 37.618293692331285,
      "lon": -122.38900855683416,
      "city": "San Francisco",
      "address": "SFO International Airport International Terminal G San Francisco, CA 94128"
    },
    {
      "name": "Lai Hong Lounge",
      "links": [
        {
          "name": "site",
          "URL": "https://www.lhklounge.com/"
        }
      ],
      "lat": 37.797848,
      "lon": -122.410133,
      "city": "San Francisco",
      "address": "1416 Powell St, San Francisco, CA 94133"
    },
    {
      "name": "Lee's Dim Sum",
      "links": [
        {
          "name": "site",
          "URL": "https://leesdimsum.com/"
        }
      ],
      "lat": 37.78584526120646,
      "lon": -122.39583257339228,
      "city": "San Francisco",
      "address": "303 2nd St San Francisco, CA 94107"
    },
    {
      "name": "Mama Ji's",
      "links": [
        {
          "name": "site",
          "URL": "http://www.mamajissf.com/"
        }
      ],
      "lat": 37.76082,
      "lon": -122.43866,
      "city": "San Francisco",
      "address": "4416 18th St San Francisco, CA 94114"
    },
    {
      "name": "Ming Hui Dim Sum",
      "links": [
        {
          "name": "Yelp",
          "URL": "https://www.yelp.com/biz/ming-hui-dim-sum-san-francisco"
        }
      ],
      "lat": 37.73054,
      "lon": -122.404536,
      "city": "San Francisco",
      "address": "2495 San Bruno Ave San Francisco, CA 94134"
    },
    {
      "name": "Mong Kok Dim Sum",
      "links": [
        {
          "name": "Yelp",
          "URL": "https://www.yelp.com/biz/mongkok-dim-sum-san-francisco"
        }
      ],
      "lat": 37.753878,
      "lon": -122.490078,
      "city": "San Francisco",
      "address": "2438 Noriega St San Francisco, CA 94122"
    },
    {
      "name": "Oriental Pearl Restaurant",
      "links": [
        {
          "name": "Yelp",
          "URL": "https://www.yelp.com/biz/oriental-pearl-restaurant-san-francisco"
        }
      ],
      "lat": 37.794424,
      "lon": -122.40583,
      "city": "San Francisco",
      "address": "760 Clay St San Francisco, CA 94108"
    },
    {
      "name": "Osmanthus Dim Sum Lounge",
      "links": [
        {
          "name": "site",
          "URL": "https://www.osmanthusdimsum.com/"
        }
      ],
      "lat": 37.7984268430107,
      "lon": -122.40562014438814,
      "city": "San Francisco",
      "address": "504 Broadway San Francisco, CA 94133"
    },
    {
      "name": "Palette Tea House",
      "links": [
        {
          "name": "site",
          "URL": "https://paletteteahouse.com/"
        }
      ],
      "lat": 37.80693,
      "lon": -122.41167,
      "city": "San Francisco",
      "address": "900 N Point St Ste B-201A San Francisco, CA 94109"
    },
    {
      "name": "Pushcart Fare",
      "links": [
        {
          "name": "site",
          "URL": "http://www.pushcartfare.com/"
        }
      ],
      "lat": 37.755531,
      "lon": -122.419548,
      "city": "San Francisco",
      "address": "3224 22nd St San Francisco, CA 94110"
    },
    {
      "name": "Red A Dim Sum",
      "links": [
        {
          "name": "site",
          "URL": "http://www.redadimsum.com/"
        }
      ],
      "lat": 37.783272097587464,
      "lon": -122.46620541890778,
      "city": "San Francisco",
      "address": "634 Clement St San Francisco, CA 94118"
    },
    {
      "name": "Riverside Seafood Restaurant",
      "links": [
        {
          "name": "Yelp",
          "URL": "https://www.yelp.com/biz/riverside-seafood-restaurant-san-francisco"
        }
      ],
      "lat": 37.738989,
      "lon": -122.479875,
      "city": "San Francisco",
      "address": "1201 Vicente St San Francisco, CA 94116"
    },
    {
      "name": "S&T Hong Kong Seafood",
      "links": [
        {
          "name": "Yelp",
          "URL": "https://www.yelp.com/biz/s-and-t-hong-kong-seafood-san-francisco"
        }
      ],
      "lat": 37.753845,
      "lon": -122.491327,
      "city": "San Francisco",
      "address": "2588 Noriega St San Francisco, CA 94122"
    },
    {
      "name": "Sunshine Wheat Field Dim Sum",
      "links": [
        {
          "name": "Yelp",
          "URL": "https://www.yelp.com/biz/sunshine-wheat-field-dim-sum-san-francisco"
        }
      ],
      "lat": 37.727909,
      "lon": -122.40403,
      "city": "San Francisco",
      "address": "2668 San Bruno Ave San Francisco, CA 94134"
    },
    {
      "name": "Sweet Delight Bakery",
      "links": [
        {
          "name": "Yelp",
          "URL": "https://www.yelp.com/biz/sweet-delight-bakery-san-francisco"
        }
      ],
      "lat": 37.726161,
      "lon": -122.433894,
      "city": "San Francisco",
      "address": "4476 Mission St San Francisco, CA 94112"
    },
    {
      "name": "TC Pastry",
      "city": "San Francisco",
      "links": [
        {
          "name": "Yelp",
          "URL": "https://www.yelp.com/biz/tc-pastry-san-francisco-2"
        }
      ],
      "lat": 37.767551,
      "lon": -122.398566,
      "address": "2222 Irving St San Francisco, CA 94103"
    },
    {
      "name": "Toppu Ramen & Dim Sum House",
      "links": [
        {
          "name": "site",
          "URL": "http://ordertoppuramenanddimsumhouse.com/"
        }
      ],
      "lat": 37.796739,
      "lon": -122.405578,
      "city": "San Francisco",
      "address": "941 Kearny St San Francisco, CA 94133"
    },
    {
      "name": "Wing Sing Dim Sum",
      "links": [
        {
          "name": "Yelp",
          "URL": "https://www.yelp.com/biz/wing-sing-dim-sum-san-francisco-2"
        }
      ],
      "lat": 37.796165,
      "lon": -122.408609,
      "city": "San Francisco",
      "address": "1125 Stockton St San Francisco, CA 94133"
    },
    {
      "name": "Xiao Long Bao",
      "links": [
        {
          "name": "site",
          "URL": "https://xlb.netlify.app/"
        }
      ],
      "lat": 37.782692,
      "lon": -122.465972,
      "city": "San Francisco",
      "address": "625 Clement St San Francisco, CA 94118"
    },
    {
      "name": "Yank Sing",
      "links": [
        {
          "name": "site",
          "URL": "https://www.yanksing.com/"
        }
      ],
      "lat": 37.79311,
      "lon": -122.39482,
      "city": "San Francisco",
      "address": "101 Spear St San Francisco, CA 94105"
    },
    {
      "name": "Bistro 1968",
      "links": [
        {
          "name": "Eater",
          "URL": "https://la.eater.com/2022/12/13/23507545/bistro-1968-dim-sum-restaurant-san-gabriel-opening-photos"
        },
        {
          "name": "The Infatuation",
          "URL": "https://www.theinfatuation.com/los-angeles/reviews/bistro-1986"
        }
      ],
      "lat": 34.097914020715116,
      "lon": -118.09054814448737,
      "city": "San Gabriel",
      "address": "402 S San Gabriel Blvd Ste A San Gabriel, CA 91776"
    },
    {
      "name": "Five Star Seafood Restaurant",
      "links": [
        {
          "name": "Yelp",
          "URL": "https://www.yelp.com/biz/five-star-seafood-restaurant-san-gabriel"
        }
      ],
      "lat": 34.07832,
      "lon": -118.10115,
      "city": "San Gabriel",
      "address": "140 W Valley Blvd, Ste 4D, San Gabriel, CA 91776"
    },
    {
      "name": "Hong Kong Dim Sum House",
      "links": [
        {
          "name": "site",
          "URL": "https://hkdimsumhouse.com/"
        },
        {
          "name": "The Infatuation",
          "URL": "https://www.theinfatuation.com/los-angeles/reviews/hong-kong-dim-sum-house"
        }
      ],
      "lat": 34.1029698923394,
      "lon": -118.11189812954761,
      "city": "San Gabriel",
      "address": "827 W Las Tunas Dr San Gabriel, CA 91776"
    },
    {
      "name": "Golden Palace",
      "links": [
        {
          "name": "site",
          "URL": "http://goldenpalacesanjose.com/"
        }
      ],
      "lat": 37.30436715248376,
      "lon": -122.03182037485537,
      "city": "San Jose",
      "address": "1146 S De Anza Blvd San Jose, CA 95129"
    },
    {
      "name": "Jade Cathay",
      "links": [
        {
          "name": "site",
          "URL": "http://www.jadecathay.com/"
        }
      ],
      "lat": 37.36078,
      "lon": -121.90937,
      "city": "San Jose",
      "address": "1339 N 1st St, San Jose, CA 95112"
    },
    {
      "name": "Mr. Siu Mai",
      "links": [
        {
          "name": "Yelp",
          "URL": "https://www.yelp.com/biz/mr-siumai-san-jose"
        }
      ],
      "lat": 37.40701465211176,
      "lon": -121.8865328458734,
      "city": "San Jose",
      "address": "2070 North Capitol Ave San Jose, CA 95132"
    },
    {
      "name": "Ocean Delight Seafood Restaurant",
      "links": [
        {
          "name": "site",
          "URL": "http://www.myoceandelight.com/"
        }
      ],
      "lat": 37.2573,
      "lon": -121.80434,
      "city": "San Jose",
      "address": "5400 Monterey Rd, San Jose, CA 95111"
    },
    {
      "name": "DT Dim Sum and Tea",
      "links": [
        {
          "name": "Yelp",
          "URL": "https://www.yelp.com/biz/d-t-dim-sum-and-tea-san-leandro"
        }
      ],
      "lat": 37.6831,
      "lon": -122.14661,
      "city": "San Leandro",
      "address": "1970 Lewelling Blvd, San Leandro, CA 94579"
    },
    {
      "name": "Fusion Delight",
      "links": [
        {
          "name": "Yelp",
          "URL": "https://www.yelp.com/biz/fusion-delight-san-leandro"
        }
      ],
      "lat": 37.68692,
      "lon": -122.13679,
      "city": "San Leandro",
      "address": "699 Lewelling Blvd, Ste 212, San Leandro, CA 94579"
    },
    {
      "name": "Dim Sum House",
      "links": [
        {
          "name": "Yelp",
          "URL": "https://www.yelp.com/biz/dim-sum-house-san-lorenzo"
        }
      ],
      "lat": 37.67124121619649,
      "lon": -122.12429925918171,
      "city": "San Lorenzo",
      "address": "754 Bockman Rd San Lorenzo, CA 94580"
    },
    {
      "name": "Kaikai Dim Sum",
      "links": [
        {
          "name": "Yelp",
          "URL": "https://www.yelp.com/biz/kaikai-dim-sum-san-mateo"
        }
      ],
      "lat": 37.56339294912534,
      "lon": -122.32322933241034,
      "city": "San Mateo",
      "address": "88 E 4th Ave San Mateo, CA 94401"
    },
    {
      "name": "Palette Tea Garden",
      "links": [
        {
          "name": "site",
          "URL": "https://paletteteagarden.com/"
        }
      ],
      "lat": 37.53853305680313,
      "lon": -122.30221068672334,
      "city": "San Mateo",
      "address": "48 Hillsdale Mall San Mateo, CA 94403"
    },
    {
      "name": "China Pavilion",
      "links": [
        {
          "name": "site",
          "URL": "http://china-pavilion.com/"
        }
      ],
      "lat": 34.42262,
      "lon": -119.70562,
      "city": "Santa Barbara",
      "address": "1202 Chapala St, Santa Barbara, CA 93101"
    },
    {
      "name": "iChina",
      "links": [
        {
          "name": "site",
          "URL": "https://www.ichinarestaurant.com/"
        }
      ],
      "lat": 37.32477856955832,
      "lon": -121.94710524591375,
      "city": "Santa Clara",
      "address": "2855 Stevens Creek Blvd Ste 1891 Westfield Valley Fair Santa Clara, CA 95050"
    },
    {
      "name": "Hang Ah Dim Sum",
      "links": [
        {
          "name": "site",
          "URL": "https://www.hangahdimsum.com/"
        }
      ],
      "lat": 38.45912,
      "lon": -122.72541,
      "city": "Santa Rosa",
      "address": "2130 Armory Drive Santa Rosa CA, 95401"
    },
    {
      "name": "HL Peninsula Restaurant",
      "links": [
        {
          "name": "site",
          "URL": "https://hlpeninsula.com/"
        }
      ],
      "lat": 37.657442,
      "lon": -122.40532,
      "city": "South San Francisco",
      "address": "608 Dubuque Ave South San Francisco, CA 94080"
    },
    {
      "name": "Dynasty Restaurant",
      "links": [
        {
          "name": "site",
          "URL": "http://www.dynastyfamilyca.com/"
        }
      ],
      "lat": 38.010097,
      "lon": -121.322134,
      "city": "Stockton",
      "address": "848 W Benjamin Holt Dr, Stockton, CA 95207"
    },
    {
      "name": "Dim Sum King",
      "links": [
        {
          "name": "site",
          "URL": "http://www.dimsumkingnow.com/"
        }
      ],
      "lat": 37.36949,
      "lon": -122.04212,
      "city": "Sunnyvale",
      "address": "824 W El Camino Real, Sunnyvale, CA 94087"
    },
    {
      "name": "Ming Tasty",
      "links": [
        {
          "name": "site",
          "URL": "http://www.sunnyvalemingtasty.com/"
        }
      ],
      "lat": 37.39391,
      "lon": -121.9959,
      "city": "Sunnyvale",
      "address": "1129 N Lawrence Expy, Sunnyvale, CA 94089"
    },
    {
      "name": "New Port Restaurant",
      "links": [
        {
          "name": "site",
          "URL": "httpss://www.newport-restaurant.com/"
        }
      ],
      "lat": 37.33856,
      "lon": -122.01376,
      "city": "Sunnyvale",
      "address": "1686 S Wolfe Rd, Sunnyvale, CA 94087"
    },
    {
      "name": "Saigon Seafood Harbor Restaurant",
      "links": [
        {
          "name": "site",
          "URL": "http://saigonharbors.com/"
        }
      ],
      "lat": 37.39503,
      "lon": -121.99566,
      "city": "Sunnyvale",
      "address": "1135 Lawrence Expy, Sunnyvale, CA 94089"
    },
    {
      "name": "Ginger Cafe",
      "links": [
        {
          "name": "site",
          "URL": "https://gingercafe.net/"
        }
      ],
      "lat": 37.36855,
      "lon": -122.03753,
      "city": "Sunnyvale",
      "address": "398 W El Camino Real, Ste 114, Sunnyvale, CA 94087"
    },
    {
      "name": "Grand Harbor Restaurant",
      "links": [
        {
          "name": "Yelp",
          "URL": "https://www.yelp.com/biz/grand-harbor-restaurant-temple-city"
        }
      ],
      "lat": 34.10462,
      "lon": -118.07364,
      "city": "Temple City",
      "address": "5725 Rosemead Blvd, Temple City, CA 91780"
    },
    {
      "name": "J Zhou Oriental Cuisine",
      "links": [
        {
          "name": "site",
          "URL": "http://jzhouorientalcuisine.net/"
        }
      ],
      "lat": 33.69776,
      "lon": -117.82628,
      "city": "Tustin",
      "address": "2601 Park Avenue, Tustin, CA 92782"
    },
    {
      "name": "Creek House Dim Sum Restaurant",
      "links": [
        {
          "name": "site",
          "URL": "https://www.creekhousedimsum.com/"
        }
      ],
      "lat": 37.91143,
      "lon": -122.06193,
      "city": "Walnut Creek",
      "address": "1291 Parkside Dr, Walnut Creek, CA 94596"
    },
    {
      "name": "Sheng Hui Dim Sum",
      "links": [
        {
          "name": "site",
          "URL": "http://www.shenghuidimsum.com/"
        }
      ],
      "lat": 34.00234,
      "lon": -117.88141,
      "city": "West Covina",
      "address": "2889 E Valley Blvd Ste J, West Covina, CA 91792"
    },
    {
      "name": "Dim Sum House",
      "links": [
        {
          "name": "site",
          "URL": "https://www.dimsumhousela.com/"
        }
      ],
      "lat": 34.04912,
      "lon": -118.43573,
      "city": "West Los Angeles",
      "address": "1822 Westwood Blvd, West Los Angeles, CA 90025"
    },
    {
      "name": "Dim Sum Bistro",
      "links": [
        {
          "name": "Yelp",
          "URL": "https://www.yelp.com/biz_photos/dim-sum-bistro-westminster-2"
        }
      ],
      "lat": 33.74366497913424,
      "lon": -117.96864094449631,
      "city": "Westminster",
      "address": "9200 Bolsa Ave Ste 302 Westminster, CA 92683"
    },
    {
      "name": "The Dim Sum Co.",
      "links": [
        {
          "name": "site",
          "URL": "https://thedimsumco.com/"
        }
      ],
      "lat": 33.759224,
      "lon": -117.989754,
      "city": "Westminster",
      "address": "8900 Westminster Blvd, Westminster, CA 92683"
    },
    {
      "name": "Furiwa To Go",
      "links": [
        {
          "name": "site",
          "URL": "https://furiwa-togo.square.site/"
        }
      ],
      "lat": 33.74326615887352,
      "lon": -117.9899791312346,
      "city": "Westminster",
      "address": "15111 Beach Boulevard Westminster, CA 92683"
    },
    {
      "name": "Gia Phat Food Company",
      "links": [
        {
          "name": "Yelp",
          "URL": "https://www.yelp.com/biz/giai-phat-food-company-westminster"
        }
      ],
      "lat": 33.74481,
      "lon": -117.96265,
      "city": "Westminster",
      "address": "9550 Bolsa Ave, Ste 123, Westminster, CA 92683"
    },
    {
      "name": "Seafood Paradise Restaurant",
      "links": [
        {
          "name": "site",
          "URL": "https://seafoodparadiserestaurant.com/"
        }
      ],
      "lat": 33.75907,
      "lon": -117.9795,
      "city": "Westminster",
      "address": "8602 Westminster Blvd, Westminster, CA 92683"
    },
    {
      "name": "Seafood Cove #2",
      "links": [
        {
          "name": "site",
          "URL": "https://www.seafood-cove.com/"
        }
      ],
      "lat": 33.74516,
      "lon": -117.967975,
      "city": "Westminster",
      "address": "9211 Bolsa Ave, Westminster, CA 92683"
    },
    {
      "name": "Seafood World",
      "links": [
        {
          "name": "site",
          "URL": "http://www.seafoodworldrestaurant.com/"
        }
      ],
      "lat": 33.7398,
      "lon": -117.95608,
      "city": "Westminster",
      "address": "15351 Brookhurst St, Ste 106, Westminster, CA 92683"
    },
    {
      "name": "Youyou",
      "links": [
        {
          "name": "site",
          "URL": "https://www.hardrockhotelsacramento.com/restaurants/youyu"
        }
      ],
      "lat": 39.05091194114853,
      "lon": -121.51265891884606,
      "city": "Wheatland",
      "address": "3317 Forty Mile Rd Wheatland, CA 95692"
    }
  ]
}
