{
    "name": "Colorado",
    "places": [
        {
            "name": "Nana's Dim Sum and Dumplings",
            "links": [
                {
                    "name": "site",
                    "URL": "https://nanasdumplingsboulder.com/"
                },
                {
                    "name": "Westword",
                    "URL": "https://www.westword.com/guide/denver-restaurants/nanas-dim-sum-and-dumplings-18750236"
                }
            ],
            "lat": 40.007969463474566,
            "lon": -105.27647531684426,
            "city": "Boulder",
            "address": "1125 13th Street, Boulder, CO 80302"
        },
        {
            "name": "Emperor Palace",
            "links": [
                {
                    "name": "Yelp",
                    "URL": "https://www.yelp.com/biz/emperor-palace-broomfield"
                }
            ],
            "lat": 39.913930,
            "lon": -105.071300,
            "city": "Broomfield",
            "address": "6700 W 120th Ave Broomfield, CO 80020"
        },
        {
            "name": "Empress Seafood Restaurant",
            "links": [
                {
                    "name": "site",
                    "URL": "http://denverempress.com/"
                }
            ],
            "lat": 39.711450,
            "lon": -105.023170,
            "city": "Denver",
            "address": "2825 W Alameda Ave Denver, CO 80219"
        },
        {
            "name": "Nana's Dim Sum and Dumplings",
            "links": [
                {
                    "name": "site",
                    "URL": "https://nanasdumplingsdenver.com/"
                }
            ],
            "lat": 39.763711961620544,
            "lon": -105.01075847463052,
            "city": "Denver",
            "address": "3316 Tejon St Ste 102 Denver, CO 80211"
        },
        {
            "name": "Star Kitchen",
            "links": [
                {
                    "name": "site",
                    "URL": "https://www.starkitchenco.com/"
                }
            ],
            "lat": 39.697330,
            "lon": -105.024240,
            "city": "Denver",
            "address": "2917 W Mississippi Ave, Ste 5, Denver, CO 80219"
        },
        {
            "name": "Super Star Asian Cuisine",
            "links": [
                {
                    "name": "site",
                    "URL": "https://superstarasiancuisine.com/"
                }
            ],
            "lat": 39.710580,
            "lon": -105.013670,
            "city": "Denver",
            "address": "2200 W Alameda Ave Ste 34 Denver, CO 80223"
        }
    ]
}
