{
  "name": "Florida",
  "places": [
    {
      "name": "Dim Sum King",
      "links": [
        {
          "name": "site",
          "URL": "http://www.dimsumsarasota.com/"
        }
      ],
      "lat": 27.389794957428585,
      "lon": -82.45792825998795,
      "city": "Bradenton",
      "address": "8194 Tourist Center Dr Bradenton, FL 34201"
    },
    {
      "name": "Ginger Bistro",
      "links": [
        {
          "name": "site",
          "URL": "http://gingerbistrousa.com/"
        }
      ],
      "lat": 26.608280041659203,
      "lon": -82.0260245446598,
      "city": "Cape Coral",
      "address": "2366 Surfside Boulevard C-101 Cape Coral, FL 33991"
    },
    {
      "name": "Hong Kong Dim Sum",
      "links": [
        {
          "name": "Yelp",
          "URL": "https://www.yelp.com/biz/hong-kong-dim-sum-coral-springs"
        }
      ],
      "lat": 26.26018,
      "lon": -80.2492,
      "city": "Coral Springs",
      "address": "2363 N University Dr Coral Springs, FL 33065"
    },
    {
      "name": "Delray Goodies",
      "links": [
        {
          "name": "site",
          "URL": "https://delray-goodies.business.site/"
        }
      ],
      "lat": 26.46492,
      "lon": -80.06914,
      "city": "Delray Beach",
      "address": "155 Ne 4th Ave Delray Beach, FL 33483"
    },
    {
      "name": "Ginger Bistro",
      "links": [
        {
          "name": "site",
          "URL": "http://gingerbistrousa.com/"
        }
      ],
      "lat": 26.59371965863786,
      "lon": -81.87400555815191,
      "city": "Fort Myers",
      "address": "4650 Cleveland Ave. #8, Fort Myers, FL 33907"
    },
    {
      "name": "Hong Kong Bistro",
      "links": [
        {
          "name": "site",
          "URL": "https://www.hongkongbistrojax.com/"
        }
      ],
      "lat": 30.285379061954785,
      "lon": -81.45992354457992,
      "city": "Jacksonville",
      "address": "13500 Beach Blvd Ste 25 Jacksonville, FL 32224"
    },
    {
      "name": "Lucky Cat Dim Sum",
      "links": [
        {
          "name": "site",
          "URL": "http://www.luckycatdimsum.com/"
        }
      ],
      "lat": 30.185679895576765,
      "lon": -81.60846761716394,
      "city": "Jacksonville",
      "address": "10550 Old St Augustine Rd Ste 28 Jacksonville, FL 32257"
    },
    {
      "name": "S & R Dim Sum",
      "links": [
        {
          "name": "site",
          "URL": "https://www.srdimsumjax.com/"
        }
      ],
      "lat": 30.31169,
      "lon": -81.68033,
      "city": "Jacksonville",
      "address": "1661 Riverside Ave Ste 123 Jacksonville, FL 32204"
    },
    {
      "name": "Timwah Dim Sum",
      "links": [
        {
          "name": "site",
          "URL": "https://www.timwahdimsum.com/"
        }
      ],
      "lat": 30.217654,
      "lon": -81.520315,
      "city": "Jacksonville",
      "address": "8358 Point Meadows Dr, Jacksonville, FL 32256"
    },
    {
      "name": "Hong Kong Wok N Grill",
      "links": [
        {
          "name": "site",
          "URL": "https://hongkongwokngrill.com/"
        }
      ],
      "lat": 26.93526927740075,
      "lon": -80.089738215817,
      "city": "Jupiter",
      "address": "185 E Indiantown Rd Ste 217 Jupiter, FL 33477"
    },
    {
      "name": "Real Wok",
      "links": [
        {
          "name": "site",
          "URL": "http://www.realwokdimsum.com/"
        }
      ],
      "lat": 26.57119,
      "lon": -80.11606,
      "city": "Lake Worth",
      "address": "4640 Hypoluxo Rd Ste 5 Lake Worth, FL 33463"
    },
    {
      "name": "Canton Palace",
      "links": [
        {
          "name": "site",
          "URL": "http://cantonpalace.weebly.com/"
        }
      ],
      "lat": 25.76148,
      "lon": -80.32582,
      "city": "Miami",
      "address": "7980 SW 8th St Miami, FL 33144"
    },
    {
      "name": "Da Tang Zhen Wei",
      "links": [
        {
          "name": "site",
          "URL": "https://datangzhenwei.com/"
        }
      ],
      "lat": 25.765577176085092,
      "lon": -80.18900758700468,
      "city": "Miami",
      "address": "801 Brickell Bay Dr Miami, FL 33131"
    },
    {
      "name": "Kon Chau",
      "links": [
        {
          "name": "site",
          "URL": "https://www.konchauchinese.com/"
        }
      ],
      "lat": 25.73324,
      "lon": -80.31132,
      "city": "Miami",
      "address": "8376 SW 40th St Miami, FL 33155"
    },
    {
      "name": "South Garden Chinese Restaurant",
      "links": [
        {
          "name": "site",
          "URL": "http://southgardenrestaurant.com/"
        }
      ],
      "lat": 25.70248,
      "lon": -80.36926,
      "city": "Miami",
      "address": "10855 SW 72nd St Miami, FL 33173"
    },
    {
      "name": "Tropical",
      "links": [
        {
          "name": "site",
          "URL": "http://www.tropicalchinesemiami.com/"
        }
      ],
      "lat": 25.73402,
      "lon": -80.32595,
      "city": "Miami",
      "address": "7991 SW 40th St Miami, FL 33155"
    },
    {
      "name": "Yip",
      "links": [
        {
          "name": "site",
          "URL": "https://www.yipmiami.com/"
        }
      ],
      "lat": 25.79932,
      "lon": -80.19801,
      "city": "Miami",
      "address": "143 NW 23rd Street, Miami, Florida 33127"
    },
    {
      "name": "Hakkasan",
      "links": [
        {
          "name": "site",
          "URL": "https://hakkasan.com/miami/"
        }
      ],
      "lat": 25.818018789364075,
      "lon": -80.12242611583976,
      "city": "Miami Beach",
      "address": "4441 Collins Ave Miami Beach, FL 33140"
    },
    {
      "name": "Tanuki",
      "links": [
        {
          "name": "site",
          "URL": "https://www.tanukimiami.com/"
        }
      ],
      "lat": 25.781780600918623,
      "lon": -80.14121251584041,
      "city": "Miami Beach",
      "address": "1080 Alton Rd Miami Beach, FL 33139"
    },
    {
      "name": "Sang's Chinese Food",
      "links": [
        {
          "name": "site",
          "URL": "https://www.sangschinesefoodanddimsum.getsauce.com/"
        },
        {
          "name": "The Infatuation",
          "URL": "https://www.theinfatuation.com/miami/reviews/sangs-chinese-food"
        }
      ],
      "lat": 25.92637,
      "lon": -80.16121,
      "city": "North Miami Beach",
      "address": "1925 NE 163rd St North Miami Beach, FL 33162"
    },
    {
      "name": "818 Best Dim Sum",
      "links": [
        {
          "name": "Scott Joseph's Orlando Restaurant Guide",
          "URL": "https://scottjosephorlando.com/818-best-dim-sum/"
        }
      ],
      "lat": 28.488786704602468,
      "lon": -81.42956567927584,
      "city": "Orlando",
      "address": "4192 Conroy Rd Ste 109 and 110 Orlando, FL 32839"
    },
    {
      "name": "Bakery 1908",
      "links": [
        {
          "name": "site",
          "URL": "https://bakery1908.com/"
        },
        {
          "name": "Orlando Sentinel",
          "URL": "https://www.orlandosentinel.com/2024/01/18/bakery-1908-dim-sum-orlando-mills-50-review/"
        },
        {
          "name": "Park Ave Magazine",
          "URL": "https://parkavemagazine.com/bakery-1908-a-dumpling-delight-in-mills-50-orlando/"
        }
      ],
      "lat": 28.553638234120772,
      "lon": -81.35523947314438,
      "city": "Orlando",
      "address": "2021 E. Colonial Drive, Orlando, FL 32803"
    },
    {
      "name": "Ming's Bistro",
      "links": [
        {
          "name": "site",
          "URL": "https://www.mingsbistro.net/"
        }
      ],
      "lat": 28.5539,
      "lon": -81.36383,
      "city": "Orlando",
      "address": "1212 Woodward St #6, Orlando, FL 32803"
    },
    {
      "name": "China Pavilion",
      "links": [
        {
          "name": "Yelp",
          "URL": "https://www.yelp.com/biz/china-pavilion-pembroke-pines-2"
        }
      ],
      "lat": 26.00923,
      "lon": -80.2785,
      "city": "Pembroke Pines",
      "address": "10041 Pines Blvd Pembroke Pines, FL 33024"
    },
    {
      "name": "New Hong Kong House",
      "links": [
        {
          "name": "site",
          "URL": "https://newhongkonghouse.com/"
        },
        {
          "name": "Pensacola News Journal",
          "URL": "https://www.pnj.com/story/entertainment/dining/2023/09/06/new-hong-kong-house-brings-chinese-dim-sum-menu-to-pensacola/70716411007/"
        }
      ],
      "lat": 30.4831380842774,
      "lon": -87.22220247482493,
      "city": "Pensacola",
      "address": "5912 N Davis Hwy Pensacola, FL 32503"
    },
    {
      "name": "Ginger Dim Sum",
      "links": [
        {
          "name": "site",
          "URL": "https://www.gingerdimsum.com/"
        }
      ],
      "lat": 27.00561997597728,
      "lon": -82.05394037348779,
      "city": "Port Charlotte",
      "address": "1912 Kings Hwy Port Charlotte, FL 33980"
    },
    {
      "name": "Toa Toa",
      "links": [
        {
          "name": "site",
          "URL": "http://www.toatoachineserestaurant.com/"
        }
      ],
      "lat": 26.18217,
      "lon": -80.26827,
      "city": "Sunrise",
      "address": "4145 NW 88th Ave Sunrise, FL 33351"
    },
    {
      "name": "Hong Kong City BBQ",
      "links": [
        {
          "name": "site",
          "URL": "https://www.hkcitybbq.com/"
        }
      ],
      "lat": 26.191444360288738,
      "lon": -80.20455115604544,
      "city": "Tamarac",
      "address": "5301 N State Rd 7 Tamarac, FL 33319"
    },
    {
      "name": "Grand Lake Chinese Restaurant",
      "links": [
        {
          "name": "site",
          "URL": "https://www.grandlakewestpalmbeach.com/"
        }
      ],
      "lat": 26.707651,
      "lon": -80.164055,
      "city": "West Palm Beach",
      "address": "7750 Okeechobee Blvd #6, West Palm Beach, FL 33411 "
    },
    {
      "name": "Singing Bamboo Chinese Restaurant",
      "links": [
        {
          "name": "site",
          "URL": "https://www.singingbamboofl.com/"
        }
      ],
      "lat": 26.71911,
      "lon": -80.11173,
      "city": "West Palm Beach",
      "address": "2845 N Military Trl West Palm Beach, FL 33409"
    },
    {
      "name": "Dim Dim Sum",
      "links": [
        {
          "name": "site",
          "URL": "http://www.dimdimsumorlando.com/"
        }
      ],
      "lat": 28.49243,
      "lon": -81.51136,
      "city": "Windermere",
      "address": "4750 The Grove Drive Ste 100, Windermere, FL 34786"
    }
  ]
}
