{
    "name": "Hawaii",
    "places": [
        {
            "name": "Canton House",
            "links": [
                {
                    "name": "Yelp",
                    "URL": "https://www.yelp.com/biz/canton-house-honolulu"
                }
            ],
            "lat": 21.313150,
            "lon": -157.863200,
            "city": "Honolulu",
            "address": "162 N Hotel St, Honolulu, HI 96817"
        },
        {
            "name": "Dim Sum Village",
            "links": [
                {
                    "name": "Yelp",
                    "URL": "https://www.yelp.com/biz/dimsum-village-honolulu"
                }
            ],
            "lat": 21.313376581147722,
            "lon": -157.86262536242558,
            "city": "Honolulu",
            "address": "1120 Maunakea St Honolulu, HI 96817"
        },
        {
            "name": "Fook Lam",
            "links": [
                {
                    "name": "Yelp",
                    "URL": "https://www.yelp.com/biz/fook-lam-honolulu"
                }
            ],
            "lat": 21.314220,
            "lon": -157.860870,
            "city": "Honolulu",
            "address": "100 N Beretania St, Ste 110-112, Honolulu, HI 96817"
        },
        {
            "name": "Ginger and Garlic",
            "links": [
                {
                    "name": "Yelp",
                    "URL": "https://www.yelp.com/biz/ginger-and-garlic-honolulu"
                }
            ],
            "lat": 21.312280,
            "lon": -157.861990,
            "city": "Honolulu",
            "address": "1138 Smith St, Honolulu, HI 96817"
        },
        {
            "name": "Happy Day",
            "links": [
                {
                    "name": "site",
                    "URL": "https://www.happydayshi.com/"
                }
            ],
            "lat": 21.282850,
            "lon": -157.800050,
            "city": "Honolulu",
            "address": "3553 Waialae Ave, Honolulu, HI 96816"
        },
        {
            "name": "Harbor Village Cuisine",
            "links": [
                {
                    "name": "Yelp",
                    "URL": "https://www.yelp.com/biz/harbor-village-cuisine-honolulu"
                }
            ],
            "lat": 21.277250,
            "lon": -157.705450,
            "city": "Honolulu",
            "address": "7192 Kalanianaole Hwy, Honolulu, HI 96825"
        },
        {
            "name": "Hawaii Dim Sum and Seafood",
            "links": [
                {
                    "name": "Yelp",
                    "URL": "https://www.yelp.com/biz/hawaii-dim-sum-and-seafood-restaurant-honolulu-4"
                }
            ],
            "lat": 21.312260493338027,
            "lon":  -157.8638959161702,
            "city": "Honolulu",
            "address": "111 N King St, Honolulu, HI 96817"
        },
        {
            "name": "Jade Dynasty Seafood",
            "links": [
                {
                    "name": "site",
                    "URL": "http://www.jadedynastyhawaii.com/"
                }
            ],
            "lat": 21.302622,
            "lon": -157.863306,
            "city": "Honolulu",
            "address": "450 Ala Moana Boulevard: Ala Moana Shopping Center - 4th Floor Ho'okipa Terrace Honolulu, Hawaii 96814"
        },
        {
            "name": "Legend Seafood Restaurant",
            "links": [
                {
                    "name": "site",
                    "URL": "https://www.legendseafoodhonolulu.com/"
                }
            ],
            "lat": 21.314220,
            "lon": -157.860870,
            "city": "Honolulu",
            "address": "100 N Beretania St, Ste 108, Honolulu, HI 96817"
        },
        {
            "name": "Mei Sum",
            "links": [
                {
                    "name": "Yelp",
                    "URL": "https://www.yelp.com/biz/mei-sum-honolulu"
                }
            ],
            "lat": 21.312080,
            "lon": -157.860890,
            "city": "Honolulu",
            "address": "1170 Nuuanu Ave, Ste 102, Honolulu, HI 96817"
        },
        {
            "name": "Morimoto Asia Waikiki",
            "links": [
                {
                    "name": "site",
                    "URL": "https://morimotoasiawaikiki.com/"
                }
            ],
            "lat": 21.2751809823481,
            "lon": -157.82391351153206,
            "city": "Honolulu",
            "address": "1170 Nuuanu Ave, Ste 102, Honolulu, HI 96817"
        },
        {
            "name": "New Canton House",
            "links": [
                {
                    "name": "Yelp",
                    "URL": "https://www.yelp.com/biz/canton-house-honolulu"
                }
            ],
            "lat": 21.31395163866796,
            "lon": -157.86339907402908,
            "city": "Honolulu",
            "address": "162 N Hotel St Honolulu, HI 96817"
        },
        {
            "name": "Nice Day Chinese Seafood",
            "links": [
                {
                    "name": "Yelp",
                    "URL": "https://www.yelp.com/biz/nice-day-chinese-seafood-restaurant-honolulu"
                }
            ],
            "lat": 21.319790,
            "lon": -157.861240,
            "city": "Honolulu",
            "address": "1425 Liliha St, Ste 2-5, Honolulu, HI 96817"
        },
        {
            "name": "Royal Kitchen",
            "links": [
                {
                    "name": "site",
                    "URL": "https://royalkitchenhawaii.com/"
                }
            ],
            "lat": 21.315677851979192,
            "lon": -157.86062175075057,
            "city": "Honolulu",
            "address": "100 N Beretania St Ste 175 Honolulu, HI 96817"
        },
        {
            "name": "Sing Cheong Yuan Bakery",
            "links": [
                {
                    "name": "Yelp",
                    "URL": "https://www.yelp.com/biz/sing-cheong-yuan-bakery-honolulu-2"
                }
            ],
            "lat": 21.312921858541856,
            "lon": -157.86322820471764,
            "city": "Honolulu",
            "address": "1027 Maunakea St Honolulu, HI 96817"
        },
        {
            "name": "Tai Pan Dim Sum",
            "links": [
                {
                    "name": "Yelp",
                    "URL": "https://www.yelp.com/biz/tai-pan-dim-sum-honolulu"
                }
            ],
            "lat": 21.314220,
            "lon": -157.860870,
            "city": "Honolulu",
            "address": "100 N Beretania St, Honolulu, HI 96817"
        },
        {
            "name": "Tim Ho Wan",
            "links": [
                {
                    "name": "site",
                    "URL": "http://timhowanusa.com/"
                }
            ],
            "lat": 21.290940,
            "lon": -157.835890,
            "city": "Honolulu",
            "address": "2233 Kalakaua Ave, Bldg B, Level 3, B303, Honolulu, HI 96815"
        },
        {
            "name": "Yung Yee Kee Dim Sum",
            "links": [
                {
                    "name": "site",
                    "URL": "https://yungyeekeedimsum.com/"
                }
            ],
            "lat": 21.293280,
            "lon": -157.843450,
            "city": "Honolulu",
            "address": "1411 Kapiolani Blvd  Ste 1  Honolulu, HI 96814"
        },
        {
            "name": "YYK Dim Sum",
            "links": [
                {
                    "name": "Yelp",
                    "URL": "https://www.yelp.com/biz_photos/yyk-dim-sum-honolulu"
                }
            ],
            "lat": 21.29213936867075,
            "lon": -157.8460267751228,
            "city": "Honolulu",
            "address": "1450 Ala Moana Blvd Honolulu, HI 96814"
        }
    ]
}