{
    "name": "Illinois",
    "places": [
        {
            "name": "Cai",
            "links": [
                {
                    "name": "Yelp",
                    "URL": "https://www.yelp.com/biz/cai-chicago"
                }
            ],
            "lat": 41.854540,
            "lon": -87.632260,
            "city": "Chicago",
            "address": "2100 S Archer Ave Chicago, IL 60616"
        },
        {
            "name": "Dolo Restaurant and Bar",
            "links": [
                {
                    "name": "site",
                    "URL": "http://www.dolorestaurant.com/#dolohome"
                }
            ],
            "lat": 41.852554,
            "lon": -87.636108,
            "city": "Chicago",
            "address": "2222 S Archer Ave Chicago, IL 60616"
        },
        {
            "name": "MingHin Cuisine (Chinatown)",
            "links": [
                {
                    "name": "site",
                    "URL": "https://www.minghincuisine.com/"
                }
            ],
            "lat": 41.853378,
            "lon": -87.634750,
            "city": "Chicago",
            "address": "2168 S Archer Ave, Chicago, IL 60616"
        },
        {
            "name": "Phoenix Restaurant",
            "links": [
                {
                    "name": "site",
                    "URL": "https://chinatownphoenix.carry-out.com/"
                }
            ],
            "lat": 41.853520,
            "lon": -87.632850,
            "city": "Chicago",
            "address": "2131 S Archer Ave Chicago, IL 60616"
        },
        {
            "name": "Three Happiness",
            "links": [
                {
                    "name": "Yelp",
                    "URL": "https://www.yelp.com/biz/three-happiness-original-restaurant-chicago"
                }
            ],
            "lat": 41.852600,
            "lon": -87.632440,
            "city": "Chicago",
            "address": "209 W Cermak Rd Chicago, IL 60616"
        },
        {
            "name": "B.I. Tea and Dim Sum",
            "links": [
                {
                    "name": "site",
                    "URL": "https://frenchmarketchicago.com/vendor/b-i-tea-and-dim-sum/"
                }
            ],
            "lat": 41.884140,
            "lon": -87.641140,
            "city": "Chicago",
            "address": "131 N Clinton St Chicago French Market Chicago, IL 60661"
        },
        {
            "name": "Chiu Quon Bakery and Dim Sum",
            "links": [
                {
                    "name": "site",
                    "URL": "http://www.cqbakery.com/"
                }
            ],
            "lat": 41.851370,
            "lon": -87.631640,
            "city": "Chicago",
            "address": "2253 S Wentworth Ave, Chicago, IL 60616"
        },
        {
            "name": "D Cuisine",
            "links": [
                {
                    "name": "site",
                    "URL": "http://www.dcuisinechicago.com/"
                }
            ],
            "lat": 41.932090,
            "lon": -87.644370,
            "city": "Chicago",
            "address": "2723 N Clark St, Chicago, IL 60614"
        },
        {
            "name": "Dim Dim",
            "links": [
                {
                    "name": "site",
                    "URL": "https://www.dimdimchicago.com/"
                }
            ],
            "lat": 41.842240,
            "lon": -87.631920,
            "city": "Chicago",
            "address": "2820 S Wentworth Ave Chicago, IL 60616"
        },
        {
            "name": "Furama Restaurant",
            "links": [
                {
                    "name": "site",
                    "URL": "http://www.furamachicago.com/"
                }
            ],
            "lat": 41.971960,
            "lon": -87.659940,
            "city": "Chicago",
            "address": "4936 N Broadway St Chicago, IL 60640"
        },
        {
            "name": "MingHin Cuisine",
            "links": [
                {
                    "name": "site",
                    "URL": "https://www.minghincuisine.com/"
                }
            ],
            "lat": 41.885350,
            "lon": -87.618460,
            "city": "Chicago",
            "address": "333 E Benton Pl, Ste 300, Chicago, IL 60601"
        },
        {
            "name": "New Furama Restaurant",
            "links": [
                {
                    "name": "Yelp",
                    "URL": "https://www.yelp.com/biz/new-furama-restaurant-chicago"
                }
            ],
            "lat": 41.841760,
            "lon": -87.632180,
            "city": "Chicago",
            "address": "2828 S Wentworth Ave Chicago, IL 60616"
        },
        {
            "name": "Silver Seafood Restaurant",
            "links": [
                {
                    "name": "site",
                    "URL": "http://silverseafoodchicago.com/"
                }
            ],
            "lat": 41.969890,
            "lon": -87.659560,
            "city": "Chicago",
            "address": "4829 N Broadway St, Chicago, IL 60640"
        },
        {
            "name": "Triple Crown Restaurant",
            "links": [
                {
                    "name": "site",
                    "URL": "https://www.triplecrownchicago.com/"
                }
            ],
            "lat": 41.852448,
            "lon": -87.631691,
            "city": "Chicago",
            "address": "2217 S Wentworth Ave Chicago, IL 60616"
        },
        {
            "name": "MingHin Cuisine",
            "links": [
                {
                    "name": "site",
                    "URL": "https://www.minghincuisine.com/"
                }
            ],
            "lat": 42.052320,
            "lon": -87.997350,
            "city": "Rolling Meadows",
            "address": "1440 Golf Rd, Rolling Meadows, IL 60008"
        }
    ]
}
