{
    "name": "Maryland",
    "places": [
        {
            "name": "Peter Chang",
            "links": [
                {
                    "name": "site",
                    "URL": "https://peterchangbaltimore.com/"
                }
            ],
            "lat": 39.30064932073702,
            "lon": -76.58999863212277,
            "city": "Baltimore",
            "address": "1923 Ashland Ave, Baltimore, MD 21205"
        },
        {
            "name": "Asian Court",
            "links": [
                {
                    "name": "site",
                    "URL": "https://www.asiancourtmd.com/#/"
                }
            ],
            "lat": 39.299710,
            "lon": -76.873200,
            "city": "Ellicott City",
            "address": "11105 Resort Road, Ellicott City, MD 21042"
        },
        {
            "name": "New Fortune",
            "links": [
                {
                    "name": "site",
                    "URL": "https://www.newfortunedimsum.com/"
                }
            ],
            "lat": 39.12766809020397,
            "lon": -77.18289048667836,
            "city": "Gaithersburg",
            "address": "16515 S. Frederick Ave. Gaithersburg, MD 20877"
        },
        {
            "name": "China Garden",
            "links": [
                {
                    "name": "site",
                    "URL": "https://chinagardenhg.com/"
                }
            ],
            "lat": 39.043820530217275,
            "lon": -77.11302023121347,
            "city": "Rockville",
            "address": "11333 Woodglen Dr Rockville, MD 20852"
        },
        {
            "name": "Chopstix Gourmet",
            "links": [
                {
                    "name": "site",
                    "URL": "http://www.chopstixgourmet.com/"
                }
            ],
            "lat": 39.310880,
            "lon": -76.522260,
            "city": "Rosedale",
            "address": "1201 67th St Rosedale, MD 21237"
        },
        {
            "name": "Gourmet Inspirations",
            "links": [
                {
                    "name": "site",
                    "URL": "https://www.gichinese.com/"
                }
            ],
            "lat": 39.040300,
            "lon": -77.054100,
            "city": "Wheaton",
            "address": "2646 University Blvd W Wheaton, MD 20902"
        },
        {
            "name": "Hollywood East Cafe",
            "links": [
                {
                    "name": "site",
                    "URL": "https://www.hollywoodeastcafe.com/"
                }
            ],
            "lat": 39.035831,
            "lon": -77.055557,
            "city": "Wheaton",
            "address": "11160 Veirs Mill Rd, Wheaton, MD 20902"
        },
        {
            "name": "Wong Gee Asian Restaurant",
            "links": [
                {
                    "name": "site",
                    "URL": "http://www.wonggee.com/"
                }
            ],
            "lat": 38.984116,
            "lon": -76.967973,
            "city": "Wheaton",
            "address": "2417 University Blvd, Wheaton, MD 20902"
        }
    ]
}
