{
    "name": "Massachusetts",
    "places": [
        {
            "name": "Bubor",
            "links": [
                {
                    "name": "Yelp",
                    "URL": "https://www.yelp.com/biz/bubor-cha-cha-boston-5"
                }
            ],
            "lat": 42.35148358608224,
            "lon": -71.06089381541845,
            "city": "Boston",
            "address": "45 Beach St Boston, MA 02111"
        },
        {
            "name": "China Pearl",
            "links": [
                {
                    "name": "site",
                    "URL": "https://www.chinapearlrestaurants.com/"
                }
            ],
            "lat": 42.351110,
            "lon": -71.060870,
            "city": "Boston",
            "address": "9 Tyler St, Boston, MA 02111"
        },
        {
            "name": "Empire Garden Restaurant",
            "links": [
                {
                    "name": "Yelp",
                    "URL": "https://www.yelp.com/biz/empire-garden-restaurant-boston-2"
                }
            ],
            "lat": 42.351280,
            "lon": -71.062780,
            "city": "Boston",
            "address": "690 Washington St, Boston, MA 02111"
        },
        {
            "name": "Great Taste Bakery and Restaurant",
            "links": [
                {
                    "name": "site",
                    "URL": "http://www.bostongreattastebakery.com/"
                }
            ],
            "lat": 42.351150,
            "lon": -71.060180,
            "city": "Boston",
            "address": "63 Beach St, Boston, MA 02111"
        },
        {
            "name": "Hei La Moon",
            "links": [
                {
                    "name": "site",
                    "URL": "http://www.heilamoon.com/"
                }
            ],
            "lat": 42.351350,
            "lon": -71.059820,
            "city": "Boston",
            "address": "88 Beach St, Boston, MA 02111"
        },
        {
            "name": "Winsor Dim Sum Caf√©",
            "links": [
                {
                    "name": "site",
                    "URL": "https://www.winsordimsum.com/"
                }
            ],
            "lat": 42.350980,
            "lon": -71.060460,
            "city": "Boston",
            "address": "10 Tyler St, Boston, MA 02111"
        },
        {
            "name": "House of Chang",
            "links": [
                {
                    "name": "site",
                    "URL": "https://www.houseofchangcambridge.com/"
                }
            ],
            "lat": 42.383540,
            "lon": -71.133710,
            "city": "Cambridge",
            "address": "282 Concord Ave, Cambridge, MA 02138"
        },
        {
            "name": "Chau Chow Dim Sum & Seafood",
            "links": [
                {
                    "name": "Yelp",
                    "URL": "https://www.yelp.com/biz/chau-chow-chinese-dim-sum-and-seafood-restaurant-dorchester"
                }
            ],
            "lat": 42.297860,
            "lon": -71.049900,
            "city": "Dorchester",
            "address": "699 Morrisey Blvd, Dorchester, MA 02122"
        },
        {
            "name": "China Star",
            "links": [
                {
                    "name": "site",
                    "URL": "http://chinastaroflowell.com/"
                }
            ],
            "lat": 42.635600,
            "lon": -71.353790,
            "city": "Lowell",
            "address": "1733 Middlesex St, Lowell, MA 01851"
        },
        {
            "name": "Ming's Seafood Restaurant",
            "links": [
                {
                    "name": "Yelp",
                    "URL": "https://www.yelp.com/biz/mings-seafood-restaurant-malden"
                }
            ],
            "lat": 42.426810,
            "lon": -71.067730,
            "city": "Malden",
            "address": "17 Pleasant St, Malden, MA 02148"
        },
        {
            "name": "Sun Kong",
            "links": [
                {
                    "name": "site",
                    "URL": "https://sunkongmalden.com/"
                }
            ],
            "lat": 42.426080,
            "lon": -71.060820,
            "city": "Malden",
            "address": "275 Eastern Ave, Malden, MA 02148"
        },
        {
            "name": "Yong Yong",
            "links": [
                {
                    "name": "Yelp",
                    "URL": "https://www.yelp.com/biz/yong-yong-malden-2"
                }
            ],
            "lat": 42.425040,
            "lon": -71.064780,
            "city": "Malden",
            "address": "108 Ferry St, Malden, MA 02148"
        },
        {
            "name": "China Pearl",
            "links": [
                {
                    "name": "site",
                    "URL": "https://www.chinapearlrestaurants.com/"
                }
            ],
            "lat": 42.240010,
            "lon": -70.991000,
            "city": "Quincy",
            "address": "237 Quincy Ave, Quincy, MA 02169"
        },
        {
            "name": "Winsor Dim Sum House and Bar",
            "links": [
                {
                    "name": "site",
                    "URL": "http://www.winsordimsum.com/"
                }
            ],
            "lat": 42.260370,
            "lon": -71.010450,
            "city": "Quincy",
            "address": "706 Hancock St, Quincy, MA 02170"
        },
        {
            "name": "Joyful Garden",
            "links": [
                {
                    "name": "site",
                    "URL": "https://www.joyful.boston/"
                }
            ],
            "lat": 42.364690,
            "lon": -71.157090,
            "city": "Watertown",
            "address": "550 Arsenal St, Watertown, MA 02472"
        }
    ]
}
