{
    "name": "Michigan",
    "places": [
        {
            "title": "Shangri-la",
            "links": [
                {
                    "name": "site",
                    "URL": "http://www.midtownshangri-la.com/"
                },
                {
                    "name": "Yelp",
                    "URL": "https://www.yelp.com/biz/midtown-shangri-la-detroit"
                }
            ],
            "lat": 42.354030,
            "lon": -83.065240,
            "city": "Detroit",
            "address": "4710 Cass Ave Detroit, MI 48201"
        },
        {
            "title": "Cheng's Restaurant",
            "links": [
                {
                    "name": "site",
                    "URL": "https://chengsrestaurant.weebly.com/"
                },
                {
                    "name": "Yelp",
                    "URL": "https://www.yelp.com/biz/chengs-restaurant-rochester-hills"
                }
            ],
            "lat": 42.641410,
            "lon": -83.132750,
            "city": "Rochester Hills",
            "address": "2666 S Rochester Rd, Rochester Hills, MI 48307"
        },
        {
            "title": "East Lake Chinese Restaurant",
            "links": [
                {
                    "name": "Yelp",
                    "URL": "https://www.yelp.com/biz/east-lake-chinese-restaurant-troy"
                }
            ],
            "lat": 42.593540,
            "lon": -83.130460,
            "city": "Troy",
            "address": "5087 Rochester Rd Troy, MI 48085"
        },
        {
            "title": "Golden Harvest",
            "links": [
                {
                    "name": "Yelp",
                    "URL": "https://www.yelp.com/biz/golden-harvest-warren"
                }
            ],
            "lat": 42.506010,
            "lon": -83.034470,
            "city": "Warren",
            "address": "6880 E 12 Mile Rd Warren, MI 48092"
        },
        {
            "title": "Shangri-la Authentic Chinese Cuisine",
            "links": [
                {
                    "name": "site",
                    "URL": "http://www.midtownshangri-la.com/"
                },
                {
                    "name": "Yelp",
                    "URL": "https://www.yelp.com/biz/shangri-la-authentic-chinese-cuisine-west-bloomfield"
                }
            ],
            "lat": 42.544730,
            "lon": -83.359110,
            "city": "West Bloomfield",
            "address": "6407 Orchard Lake Rd West Bloomfield, MI 48322"
        },
        {
            "title": "China Palace",
            "links": [
                {
                    "name": "Yelp",
                    "URL": "https://www.yelp.com/biz/china-palace-ypsilanti-2"
                }
            ],
            "lat": 42.243650,
            "lon": -83.616050,
            "city": "Ypsilanti",
            "address": "2905 Washtenaw Ave, Ypsilanti, MI 48197"
        }
    ]
}
