{
    "name": "Minnesota",
    "places": [
        {
            "name": "Mandarin Kitchen",
            "links": [
                {
                    "name": "Yelp",
                    "URL": "https://www.yelp.com/biz/mandarin-kitchen-minneapolis-2"
                }
            ],
            "lat": 44.831670,
            "lon": -93.288580,
            "city": "Minneapolis",
            "address": "8766 Lyndale Ave S Minneapolis, MN 55420"
        },
        {
            "name": "JUN",
            "links": [
                {
                    "name": "site",
                    "URL": "http://junnorthloop.com/"
                }
            ],
            "lat": 44.988700,
            "lon": -93.277740,
            "city": "Minneapolis",
            "address": "730 N Washington Ave Minneapolis, MN 55401"
        },
        {
            "name": "Pagoda",
            "links": [
                {
                    "name": "site",
                    "URL": "http://pagodadinkytown.com/"
                }
            ],
            "lat": 44.980440,
            "lon": -93.234640,
            "city": "Minneapolis",
            "address": "1417 4th St SE Minneapolis, MN 55414"
        },
        {
            "name": "Yangtze",
            "links": [
                {
                    "name": "site",
                    "URL": "http://www.yangtzemn.com/"
                }
            ],
            "lat": 44.969510,
            "lon": -93.351480,
            "city": "Saint Louis Park",
            "address": "5625 Wayzata Blvd St. Louis Park, MN 55416"
        }
    ]
}
