{
  "name": "New York",
  "places": [
    {
      "name": "Hong Kong Bakery & Bistro",
      "links": [
        {
          "name": "site",
          "URL": "http://www.hkbakerybistro.us/"
        }
      ],
      "lat": 42.70962,
      "lon": -73.82196,
      "city": "Albany",
      "address": "8 Wolf Rd Albany, NY 12205"
    },
    {
      "name": "Ocean Palace",
      "links": [
        {
          "name": "Yelp",
          "URL": "https://www.yelp.com/biz/ocean-palace-albany-2"
        }
      ],
      "lat": 42.658871,
      "lon": -73.766197,
      "city": "Albany",
      "address": "68 Wolf Rd Albany, NY 12205"
    },
    {
      "name": "Rain Modern Chinese",
      "links": [
        {
          "name": "site",
          "URL": "http://rainalbany.com/"
        }
      ],
      "lat": 42.65414,
      "lon": -73.766403,
      "city": "Albany",
      "address": "259 Lark St Albany, NY 12210"
    },
    {
      "name": "Shining Rainbow Restaurant",
      "links": [
        {
          "name": "site",
          "URL": "https://www.shiningrainbowny.com/"
        }
      ],
      "lat": 42.66232,
      "lon": -73.76925,
      "city": "Albany",
      "address": "209 Central Ave Albany, NY 12206"
    },
    {
      "name": "Shanghai You Garden",
      "links": [
        {
          "name": "site",
          "URL": "https://shanghaiyougardennyc.com/bayside-ny/"
        }
      ],
      "lat": 40.76361802483608,
      "lon": -73.77065360341574,
      "city": "Bayside",
      "address": "41-07 Bell Blvd, Bayside, NY 11361"
    },
    {
      "name": "The Orient Restaurant",
      "links": [
        {
          "name": "site",
          "URL": "http://theorientbethpage.com/"
        }
      ],
      "lat": 40.74161,
      "lon": -73.49689,
      "city": "Bethpage",
      "address": "623 Hicksville Rd Bethpage, NY 11714"
    },
    {
      "name": "Bamboo Garden",
      "links": [
        {
          "name": "Yelp",
          "URL": "https://www.yelp.com/biz/bamboo-garden-brooklyn-5"
        }
      ],
      "lat": 40.63307630501514,
      "lon": -74.0120394154704,
      "city": "Brooklyn",
      "address": "6409 8th Ave Brooklyn, NY 11220"
    },
    {
      "name": "Dimmer Summer",
      "links": [
        {
          "name": "site",
          "URL": "https://dimmersummer.com/"
        }
      ],
      "lat": 40.68527223634763,
      "lon": -73.99179510197712,
      "city": "Brooklyn",
      "address": "196 Smith St Brooklyn, NY 11201"
    },
    {
      "name": "East Harbor Seafood Palace",
      "links": [
        {
          "name": "TimeOut",
          "URL": "https://www.timeout.com/newyork/restaurants/east-harbor-seafood-palace"
        }
      ],
      "lat": 40.63339,
      "lon": -74.01444,
      "city": "Brooklyn",
      "address": "714 65th St, Brooklyn, NY 11220"
    },
    {
      "name": "Pacific Palace",
      "links": [
        {
          "name": "TimeOut",
          "URL": "https://www.timeout.com/newyork/restaurants/pacificana"
        }
      ],
      "lat": 40.63824,
      "lon": -74.00602,
      "city": "Brooklyn",
      "address": "813 55th St Brooklyn, NY 11220"
    },
    {
      "name": "Northern Manor Restaurant",
      "links": [
        {
          "name": "Yelp",
          "URL": "https://www.yelp.com/biz/northern-manor-restaurant-douglaston"
        }
      ],
      "lat": 40.76196,
      "lon": -73.75847,
      "city": "Douglaston",
      "address": "251-15 Northern Blvd Douglaston, NY 11362"
    },
    {
      "name": "Asian Jewels",
      "links": [
        {
          "name": "site",
          "URL": "http://www.asianjewelsny.com/"
        },
        {
          "name": "TimeOut",
          "URL": "https://www.timeout.com/newyork/restaurants/asian-jewels-seafood"
        }
      ],
      "lat": 40.75924,
      "lon": -73.83338,
      "city": "Flushing",
      "address": "13330 39th Ave, Flushing, NY 11354"
    },
    {
      "name": "Congee Village",
      "links": [
        {
          "name": "site",
          "URL": "https://congeenyc.com/"
        }
      ],
      "lat": 40.76127031351562,
      "lon": -73.83310031546658,
      "city": "Flushing",
      "address": "36-36 Prince Street Flushing, NY 11354"
    },
    {
      "name": "Dim Sum Garden",
      "links": [
        {
          "name": "The Infatuation",
          "URL": "https://www.theinfatuation.com/new-york/reviews/dim-sum-garden-nyc"
        }
      ],
      "lat": 40.758738379173245,
      "lon": -73.83128290359626,
      "city": "Flushing",
      "address": "13505 40th Rd, Flushing, NY 11354"
    },
    {
      "name": "Dim Sum Garden Express",
      "links": [
        {
          "name": "Yelp",
          "URL": "https://www.yelp.com/biz/dim-sum-garden-express-flushing"
        }
      ],
      "lat": 40.760487868877796,
      "lon": -73.82814798663048,
      "city": "Flushing",
      "address": "136 - 55 Roosevelt Ave, Booth A1, Flushing, NY 11354"
    },
    {
      "name": "East Buffet & Restaurant",
      "links": [
        {
          "name": "site",
          "URL": "http://www.eastbuffet.com/"
        }
      ],
      "lat": 40.737171,
      "lon": -73.824982,
      "city": "Flushing",
      "address": "4207 Main St Flushing, NY 11355"
    },
    {
      "name": "Fifty Bay",
      "links": [
        {
          "name": "site",
          "URL": "https://www.50baynyc.com"
        }
      ],
      "lat": 40.76517097201193,
      "lon": -73.81327803205282,
      "city": "Flushing",
      "address": "150-50 Northern Blvd Flushing, NY 11354"
    },
    {
      "name": "New Lake Pavilion",
      "links": [
        {
          "name": "Yelp",
          "URL": "https://www.yelp.com/biz/new-lake-pavilion-flushing"
        }
      ],
      "lat": 40.7425401,
      "lon": -73.8250104,
      "city": "Flushing",
      "address": "6015 Main St, Flushing, NY 11355"
    },
    {
      "name": "New Mulan Seafood Restaurant",
      "links": [
        {
          "name": "Yelp",
          "URL": "https://www.yelp.com/biz/new-mulan-seafood-restaurant-flushing"
        }
      ],
      "lat": 40.760151,
      "lon": -73.830841,
      "city": "Flushing",
      "address": "136-17 39th Ave Fl 2 Flushing, NY 11354"
    },
    {
      "name": "Royal Queen",
      "links": [
        {
          "name": "Yelp",
          "URL": "https://www.yelp.com/biz/royal-queen-flushing"
        }
      ],
      "lat": 40.758289,
      "lon": -73.834244,
      "city": "Flushing",
      "address": "136-20 Roosevelt Ave 3F Flushing, NY 11354"
    },
    {
      "name": "Shanghai You Garden",
      "links": [
        {
          "name": "site",
          "URL": "https://shanghaiyougardennyc.com/flushing-ny/"
        }
      ],
      "lat": 40.7591233851765,
      "lon": -73.83051401690804,
      "city": "Flushing",
      "address": "135-33 40th Road, Flushing, NY 11354"
    },
    {
      "name": "007 Chinese Food",
      "links": [
        {
          "name": "site",
          "URL": "https://007-chinese-food.square.site/"
        },
        {
          "name": "Buffalo News",
          "URL": "https://buffalonews.com/entertainment/dining/restaurants/burmese-family-brings-dim-sum-from-west-side-bazaar-to-southtowns/article_ee440206-96ad-11ed-99a4-6fb81d1c0014.html"
        },
        {
          "name": "West Side Bazaar",
          "URL": "https://www.westsidebazaar.com/007_chinese_foods"
        }
      ],
      "lat": 42.71919094983287,
      "lon": -78.839417159957,
      "city": "Hamburg",
      "address": "84 Lake St Hamburg, NY 14075"
    },
    {
      "name": "Fantasy Cuisine",
      "links": [
        {
          "name": "site",
          "URL": "http://www.fantasycuisine.com/"
        }
      ],
      "lat": 41.01933,
      "lon": -73.79746,
      "city": "Hartsdale",
      "address": "20 N Central Ave, Hartsdale, NY 10530"
    },
    {
      "name": "Orient Odyssey",
      "links": [
        {
          "name": "site",
          "URL": "http://orientodysseyny.com/"
        }
      ],
      "lat": 40.7905,
      "lon": -73.53765,
      "city": "Jericho",
      "address": "511 N Broadway Jericho, NY 11753"
    },
    {
      "name": "Fortune Wheel",
      "links": [
        {
          "name": "site",
          "URL": "https://www.fortunewheelrestaurant.com/"
        }
      ],
      "lat": 40.72736,
      "lon": -73.50193,
      "city": "Levittown",
      "address": "3601 Hempstead Tpke Levittown, NY 11756"
    },
    {
      "name": "LN1380",
      "links": [
        {
          "name": "site",
          "URL": "https://www.ln1380.com/"
        }
      ],
      "lat": 40.76196,
      "lon": -73.75847,
      "city": "Little Neck",
      "address": "251-03 Northern Blvd, Little Neck, NY 11362"
    },
    {
      "name": "Bia Vietnamese Restaurant & Bar",
      "links": [
        {
          "name": "Yelp",
          "URL": "https://www.yelp.com/biz/bia-vietnamese-restaurant-and-bar-new-hyde-park-2"
        }
      ],
      "lat": 40.751259,
      "lon": -73.70385,
      "city": "New Hyde Park",
      "address": "271-12 Union Tpke New Hyde Park, NY 11040"
    },
    {
      "name": "Awesome Dim Sum",
      "links": [
        {
          "name": "site",
          "URL": "http://www.awesumdimsum.us/"
        },
        {
          "name": "Dining on a Shoestring",
          "URL": "https://diningonashoestringinnyc.wordpress.com/2020/11/15/awesum-dim-sum-160-east-23rd-street-new-york-city-ny-10010/"
        },
        {
          "name": "Timeout",
          "URL": "https://www.timeout.com/newyork/news/times-square-is-getting-a-late-night-dim-sum-spot-102021"
        }
      ],
      "lat": 40.73885,
      "lon": -73.983643,
      "city": "New York",
      "address": "160 E 23rd St  New York, NY 10010"
    },
    {
      "name": "Awesome Dim Sum (Times Square)",
      "links": [
        {
          "name": "site",
          "URL": "http://www.awesumdimsum.us/"
        },
        {
          "name": "Dining on a Shoestring",
          "URL": "https://diningonashoestringinnyc.wordpress.com/2020/11/15/awesum-dim-sum-160-east-23rd-street-new-york-city-ny-10010/"
        },
        {
          "name": "Timeout",
          "URL": "https://www.timeout.com/newyork/news/times-square-is-getting-a-late-night-dim-sum-spot-102021"
        }
      ],
      "lat": 40.755767986186996,
      "lon":  -73.99062903205326,
      "city": "New York",
      "address": "612 8th Ave New York, NY 10018"
    },
    {
      "name": "Buddha Bodai",
      "links": [
        {
          "name": "site",
          "URL": "http://www.buddha-bodai.com/"
        },
        {
          "name": "TimeOut",
          "URL": "https://www.timeout.com/newyork/restaurants/buddha-bodai"
        }
      ],
      "lat": 40.71385,
      "lon": -73.998947,
      "city": "New York",
      "address": "5 Mott St New York, NY 10013"
    },
    {
      "name": "Congee Village",
      "links": [
        {
          "name": "site",
          "URL": "https://congeenyc.com/"
        }
      ],
      "lat": 40.71883711149485,
      "lon": -73.99038013081207,
      "city": "New York",
      "address": "100 Allen Street New York, NY 10002"
    },
    {
      "name": "Congee Dim Sum House",
      "links": [
        {
          "name": "site",
          "URL": "https://congeenyc.com/"
        },
        {
          "name": "Bowery Boogie",
          "URL": "https://boweryboogie.com/2022/08/congee-bowery-returns-with-dim-sum-house/"
        }
      ],
      "lat": 40.721432836454355,
      "lon": -73.99337755964818,
      "city": "New York",
      "address": "207 Bowery New York, NY 10002"
    },
    {
      "name": "DAO Dim Sum",
      "links": [
        {
          "name": "site",
          "URL": "https://www.daodimsum.com/"
        }
      ],
      "lat": 40.75000035520904, 
      "lon": -73.97758184764142,
      "city": "New York",
      "address": "338 Lexington Ave, New York, NY 10016"
    },
    {
      "name": "DAO Dim Sum",
      "links": [
        {
          "name": "site",
          "URL": "https://www.daodimsum.com/"
        }
      ],
      "lat": 40.7588586324678, 
      "lon": -73.96544450346201,
      "city": "New York",
      "address": "1068 2nd Ave, New York, NY 10022"
    },
    {
      "name": "DAO Dim Sum",
      "links": [
        {
          "name": "site",
          "URL": "https://www.daodimsum.com/"
        }
      ],
      "lat": 40.74757040200002, 
      "lon": -73.98295301695511,
      "city": "New York",
      "address": "177 Madison Ave, New York, NY 10016"
    },
    {
      "name": "Dim Sum Bloom",
      "links": [
        {
          "name": "Yelp",
          "URL": "https://www.yelp.com/biz/dim-sum-bloom-new-york"
        }
      ],
      "lat": 40.79592061507603,
      "lon": -73.97055781670709,
      "city": "New York",
      "address": "2596 Broadway New York, NY 10025"
    },
    {
      "name": "Dim Sum Garden",
      "links": [
        {
          "name": "I Just Want to Eat",
          "URL": "https://www.ijustwanttoeat.com/post/restaurant-review/chinese-dim-sum-garden-nyc-new-york"
        }
      ],
      "lat": 40.74998409950736,
      "lon": -73.97751747476076,
      "city": "New York",
      "address": "338 Lexington Ave, New York, NY 10016"
    },
    {
      "name": "Dim Sum Go Go (Chinatown)",
      "links": [
        {
          "name": "site",
          "URL": "https://www.dimsumgogonyc.com/"
        },
        {
          "name": "Mitzie Mee",
          "URL": "https://mitziemee.com/nyc-dim-sum-go-go-in-chinatown-dim-sum-for-one/"
        },
        {
          "name": "TimeOut",
          "URL": "https://www.timeout.com/newyork/restaurants/dim-sum-go-go"
        }
      ],
      "lat": 40.71313,
      "lon": -73.99776,
      "city": "New York",
      "address": "5 East Broadway, New York, NY 10038"
    },
    {
      "name": "Dim Sum Palace (Chinatown)",
      "links": [
        {
          "name": "site",
          "URL": "https://www.dimsumpalace.com/"
        },
        {
          "name": "The Lo-Down",
          "URL": "https://www.thelodownny.com/leslog/2022/12/dim-sum-palace-opens-at-27-division-st.html"
        }
      ],
      "lat": 40.71412878286646,
      "lon": -73.99605163020284,
      "city": "New York",
      "address": "27 Division St, New York, NY 10002"
    },
    {
      "name": "Dim Sum Palace (Hell's Kitchen)",
      "links": [
        {
          "name": "site",
          "URL": "https://www.dimsumpalace.com/"
        },
        {
          "name": "Timeout",
          "URL": "https://www.timeout.com/newyork/restaurants/dim-sum-palace"
        }
      ],
      "lat": 40.76014,
      "lon": -73.98938,
      "city": "New York",
      "address": "334 W 46th St, New York, NY 10036"
    },
    {
      "name": "Dim Sum Palace (Midtown 56th)",
      "links": [
        {
          "name": "site",
          "URL": "https://www.dimsumpalace.com/"
        }
      ],
      "lat": 40.76299228714489,
      "lon": -73.97605561546652,
      "city": "New York",
      "address": "28 W 56th St, New York, NY 10019"
    },
    {
      "name": "Dim Sum Palace (East Village)",
      "links": [
        {
          "name": "site",
          "URL": "https://www.dimsumpalace.com/"
        }
      ],
      "lat": 40.72609767083801,
      "lon": -73.99001831546768,
      "city": "New York",
      "address": "59 2nd Ave, New York, NY 10003"
    },
    {
      "name": "Dim Sum Palace (Koreatown)",
      "links": [
        {
          "name": "site",
          "URL": "https://www.dimsumpalace.com/"
        }
      ],
      "lat": 40.748794150120226,
      "lon": -73.98677213081123,
      "city": "New York",
      "address": "33 W 33rd St, New York, NY 10001"
    },
    {
      "name": "Dim Sum Palace (Financial District)",
      "links": [
        {
          "name": "site",
          "URL": "https://www.dimsumpalace.com/"
        },
        {
          "name": "Shore News Network",
          "URL": "https://www.shorenewsnetwork.com/2023/07/28/city-hall-will-soon-be-steps-away-from-the-newest-dim-sum-palace/"
        }
      ],
      "lat": 40.70965449147085,
      "lon": -74.00732768972767,
      "city": "New York",
      "address": "123 William Street, New York, NY 10038"
    },
    {
      "name": "Dim Sum Sam (FlatIron)",
      "links": [
        {
          "name": "site",
          "URL": "https://dimsumsam.us/"
        },
        {
          "name": "Timeout",
          "URL": "https://www.timeout.com/newyork/restaurants/dim-sum-sam"
        }
      ],
      "lat": 40.74054,
      "lon": -73.98787,
      "city": "New York",
      "address": "28 E 23rd St New York, NY 10010"
    },
    {
      "name": "Dim Sum Sam",
      "links": [
        {
          "name": "site",
          "URL": "https://dimsumsam.us/"
        }
      ],
      "lat": 40.755486103982584,
      "lon": -73.98954991670901,
      "city": "New York",
      "address": "240 W 40th St, New York NY 10018"
    },
    {
      "name": "Dim Sum Sam (Financial District)",
      "links": [
        {
          "name": "site",
          "URL": "https://dimsumsam.us/"
        }
      ],
      "lat": 40.70968562234683,
      "lon": -74.00730603205545,
      "city": "New York",
      "address": "123 William Stre, New York, NY 10038"
    },
    {
      "name": "Dynasty Dim Sum",
      "links": [
        {
          "name": "site",
          "URL": "https://www.dynastydimsum.com/"
        }
      ],
      "lat": 40.74148,
      "lon": -73.98088,
      "city": "New York",
      "address": "381 3rd Ave, New York, NY 10016"
    },
    {
      "name": "Golden Unicorn",
      "links": [
        {
          "name": "site",
          "URL": "http://www.goldenunicornrestaurant.com/"
        },
        {
          "name": "Timeout",
          "URL": "https://www.timeout.com/newyork/restaurants/golden-unicorn-restaurant"
        }
      ],
      "lat": 40.713684,
      "lon": -73.997185,
      "city": "New York",
      "address": "18 E Broadway, New York, NY 10002"
    },
    {
      "name": "Goody Fresh Dim Sum",
      "links": [
        {
          "name": "site",
          "URL": "http://www.goodydimsum.com/"
        }
      ],
      "lat": 40.745651688637,
      "lon": -73.98814675517531,
      "city": "New York",
      "address": "513 6th Ave New York, NY 10011"
    },
    {
      "name": "Hey Yuet",
      "links": [
        {
          "name": "site",
          "URL": "https://www.heyyuet.com/"
        }
      ],
      "lat": 40.74730766211579,
      "lon": -73.99635427438145,
      "city": "New York",
      "address": "251 West 26st New York, NY 10001"
    },
    {
      "name": "House of Joy",
      "links": [
        {
          "name": "site",
          "URL": "https://houseofjoynyc.com/"
        },
        {
          "name": "TimeOut",
          "URL": "https://www.timeout.com/newyork/restaurants/house-of-joy"
        }
      ],
      "lat": 40.71489,
      "lon": -73.99811,
      "city": "New York",
      "address": "28 Pell St, New York, NY 10013"
    },
    {
      "name": "Jing Fong Restaurant",
      "links": [
        {
          "name": "site",
          "URL": "http://jingfongny.com/"
        }
      ],
      "lat": 40.782704,
      "lon": -73.978919,
      "city": "New York",
      "address": "380 Amsterdam Avenue, New York, NY 10024"
    },
    {
      "name": "Mee Sum",
      "links": [
        {
          "name": "NPR",
          "URL": "https://www.npr.org/2021/10/17/1046850213/after-the-pandemic-left-them-empty-dim-sum-restaurants-are-bustling-once-again"
        }
      ],
      "lat": 40.7152230523845,
      "lon": -73.99828221546794,
      "city": "New York",
      "address": "26 Pell St New York, NY 10013"
    },
    {
      "name": "Moon Kee",
      "links": [
        {
          "name": "site",
          "URL": "https://moonkeerestaurant.com/"
        },
        {
          "name": "Exploring the Upper West Side",
          "URL": "https://exploringtheupperwestside.com/restaurant/moon-kee/"
        },
        {
          "name": "Hungry Onion",
          "URL": "https://moonkeerestaurant.com/"
        }
      ],
      "lat": 40.79758324297284,
      "lon": -73.96948330321518,
      "city": "New York",
      "address": "2642 Broadway New York, NY 10025"
    },
    {
      "name": "Mott Street Eatery",
      "links": [
        {
          "name": "Yelp",
          "URL": "https://www.yelp.com/biz/mott-street-eatery-new-york"
        }
      ],
      "lat": 40.71736774228305,
      "lon": -73.99727537314001,
      "city": "New York",
      "address": "98 Mott St New York, NY 10013"
    },
    {
      "name": "Nom Wah Tea Parlor",
      "links": [
        {
          "name": "site",
          "URL": "https://nomwah.com/"
        },
        {
          "name": "TimeOut",
          "URL": "https://www.timeout.com/newyork/restaurants/nom-wah-tea-parlor"
        }
      ],
      "lat": 40.71447,
      "lon": -73.99819,
      "city": "New York",
      "address": "13 Doyers St, New York, NY 10013"
    },
    {
      "name": "Ping's Seafood",
      "links": [
        {
          "name": "site",
          "URL": "https://eatatpings.com/"
        },
        {
          "name": "TimeOut",
          "URL": "https://www.timeout.com/newyork/restaurants/pings-seafood"
        }
      ],
      "lat": 40.71445,
      "lon": -73.99851,
      "city": "New York",
      "address": "22 Mott St New York, NY 10013"
    },
    {
      "name": "Red Farm (Upper West Side)",
      "links": [
        {
          "name": "site",
          "URL": "https://www.redfarmnyc.com/location/upper-west-side/"
        }
      ],
      "lat": 40.78233730078418,
      "lon": -73.9805984846557,
      "city": "New York",
      "address": "2170 Broadway, New York, NY 10024"
    },
    {
      "name": "Red Farm (West Village)",
      "links": [
        {
          "name": "site",
          "URL": "https://www.redfarmnyc.com/location/west-village/"
        },
        {
          "name": "Timeout",
          "URL": "https://www.timeout.com/newyork/restaurants/redfarm"
        }
      ],
      "lat": 40.73440351300079,
      "lon": -74.00650464232785,
      "city": "New York",
      "address": "529 Hudson St New York, NY 10014"
    },
    {
      "name": "Royal Seafood",
      "links": [
        {
          "name": "Yelp",
          "URL": "https://www.yelp.com/biz/royal-seafood-restaurant-new-york"
        }
      ],
      "lat": 40.717471078404095,
      "lon": -73.99769061546795,
      "city": "New York",
      "address": "103 Mott St, New York, NY 10013"
    },
    {
      "name": "Shun Lee Cafe",
      "links": [
        {
          "name": "site",
          "URL": "https://www.shunleerestaurants.com/location/shun-lee-cafe/"
        }
      ],
      "lat": 40.77305237893898,
      "lon": -73.9814680443023,
      "city": "New York",
      "address": "43 W 65th St New York, NY 10023"
    },
    {
      "name": "Shun Lee Palace",
      "links": [
        {
          "name": "site",
          "URL": "https://www.shunleerestaurants.com/location/shun-lee-palace/"
        },
        {
          "name": "Wikipedia",
          "URL": "https://en.wikipedia.org/wiki/Shun_Lee_Palace"
        }
      ],
      "lat": 40.75962149171615,
      "lon": -73.9690509446144,
      "city": "New York",
      "address": "155 E 55th St New York, NY 10022"
    },
    {
      "name": "Shun Lee West",
      "links": [
        {
          "name": "site",
          "URL": "https://www.shunleerestaurants.com/location/shun-lee-west/"
        }
      ],
      "lat": 40.77305237893898,
      "lon": -73.9814680443023,
      "city": "New York",
      "address": "43 W 65th St New York, NY 10023"
    },
    {
      "name": "Steam",
      "links": [
        {
          "name": "site",
          "URL": "https://steam-nyc.com/"
        }
      ],
      "lat": 40.73574415874517,
      "lon": -73.99775318691204,
      "city": "New York",
      "address": "470 6th Ave, New York, NY 10011"
    },
    {
      "name": "Tim Ho Wan (East Village)",
      "links": [
        {
          "name": "site",
          "URL": "http://timhowanusa.com/"
        },
        {
          "name": "TimeOut",
          "URL": "https://www.timeout.com/newyork/restaurants/tim-ho-wan"
        }
      ],
      "lat": 40.7315,
      "lon": -73.98991,
      "city": "New York",
      "address": "85 4th Ave, New York, NY 10003"
    },
    {
      "name": "Tim Ho Wan (Hell's Kitchen)",
      "links": [
        {
          "name": "site",
          "URL": "http://timhowanusa.com/"
        }
      ],
      "lat": 40.759278,
      "lon": -73.991601,
      "city": "New York",
      "address": "610 9th Ave., New York, NY 10036"
    },
    {
      "name": "Uncle Lou",
      "links": [
        {
          "name": "site",
          "URL": "https://www.unclelounyc.com/"
        },
        {
          "name": "Timeout",
          "URL": "https://www.timeout.com/newyork/restaurants/uncle-lou"
        }
      ],
      "lat": 40.7163509862022,
      "lon": -73.99930694564583,
      "city": "New York",
      "address": "73 Mulberry St 10013"
    },
    {
      "name": "Vegetarian Dim Sum House",
      "links": [
        {
          "name": "site",
          "URL": "https://www.vegetariandimsumhouse.com/"
        }
      ],
      "lat": 40.71530678037894,
      "lon": -73.9981414308123,
      "city": "New York",
      "address": "24 Pell St New York, NY 10013"
    },
    {
      "name": "Xu's Public House",
      "links": [
        {
          "name": "site",
          "URL": "https://xuspublichouse.com/"
        }
      ],
      "lat": 40.73608848738867,
      "lon": -73.99167111546734,
      "city": "New York",
      "address": "15 Union Square W New York, NY 10003"
    },
    {
      "name": "Jia Dim Sum",
      "links": [
        {
          "name": "site",
          "URL": "https://jia-dimsum.com/"
        }
      ],
      "lat": 40.83959395870976,
      "lon": -73.70369586088525,
      "city": "Port Washington",
      "address": "84 Old Shore Rd Port Washington, NY 11050"
    },
    {
      "name": "Crown One",
      "links": [
        {
          "name": "site",
          "URL": "https://crownoneny.com/"
        }
      ],
      "lat": 40.765858,
      "lon": -73.831283,
      "city": "Queens",
      "address": "34-20 Linden Pl, Queens, NY 11354"
    },
    {
      "name": "DAO Dim Sum",
      "links": [
        {
          "name": "site",
          "URL": "https://www.daodimsum.com/"
        }
      ],
      "lat": 40.75887511953389,
      "lon":  -73.83127094579038,
      "city": "Queens",
      "address": "135-05 40th Rd, Queens, NY 11354"
    },
    {
      "name": "DAO Dim Sum",
      "links": [
        {
          "name": "site",
          "URL": "https://www.daodimsum.com/"
        }
      ],
      "lat": 40.760463854878935,
      "lon":  -73.82818233229776,
      "city": "Queens",
      "address": "136-55 Roosevelt Ave, Queens, NY 11354"
    },
    {
      "name": "Jade Asian Bistro",
      "links": [
        {
          "name": "Yelp",
          "URL": "https://www.yelp.com/biz/jade-asian-bistro-queens-2"
        }
      ],
      "lat": 40.76033,
      "lon": -73.73167,
      "city": "Queens",
      "address": "249-36 Horace Harding Expy Queens, NY 11362"
    },
    {
      "name": "Tao's Dim Sum & Noodle",
      "links": [
        {
          "name": "site",
          "URL": "https://www.taosdimsum.com/"
        }
      ],
      "lat": 40.87801,
      "lon": -73.11722,
      "city": "Stony Brook",
      "address": "2460 Unit 2 Nesconset Hwy Stony Brook, NY 11790"
    },
    {
      "name": "Aberdeen Seafood and Dim Sum",
      "links": [
        {
          "name": "site",
          "URL": "http://www.aberdeenwhiteplains.com/"
        }
      ],
      "lat": 41.03541,
      "lon": -73.7702,
      "city": "White Plains",
      "address": "3 Barker Ave White Plains, NY 10601"
    },
    {
      "name": "Finger Lakes Tea Company",
      "links": [
        {
          "name": "site",
          "URL": "http://fingerlakestea.com/"
        }
      ],
      "lat": 42.95807,
      "lon": -76.87915,
      "city": "Waterloo",
      "address": "678 State Route 318 Waterloo, NY 13165"
    },
    {
      "name": "Shanghai You Garden",
      "links": [
        {
          "name": "site",
          "URL": "https://shanghaiyougardennyc.com/"
        }
      ],
      "lat": 40.74664286382205,
      "lon": -73.59561313225274,
      "city": "Westbury",
      "address": "1500 Old Country Rd Ste 112, Unit 103, Westbury, NY 11590"
    },
    {
      "name": "Golden Duck",
      "links": [
        {
          "name": "site",
          "URL": "http://www.goldenduckrestaurant.com/"
        }
      ],
      "lat": 42.99199,
      "lon": -78.71871,
      "city": "Williamsville",
      "address": "1840 Maple Rd Williamsville, NY 14221"
    }
  ]
}
