{
  "name": "Nevada",
  "places": [
    {
      "title": "Chang's Hong Kong Cuisine",
      "links": [
        {
          "name": "site",
          "URL": "https://changs.business.site"
        },
        {
          "name": "Yelp",
          "URL": "http://www.yelp.com/biz/changs-hong-kong-cuisine-las-vegas"
        }
      ],
      "lat": 36.1050544,
      "lon": -115.2074402,
      "city": "Las Vegas",
      "address": "4670 S Decatur Blvd."
    },
    {
      "title": "Dim Sum Cafe",
      "links": [
        {
          "name": "site",
          "URL": "http://www.dimsumcafenv.com/home.html"
        },
        {
          "name": "Yelp",
          "URL": "http://www.yelp.com/biz/dim-sum-cafe-las-vegas"
        }
      ],
      "lat": 36.1219621,
      "lon": -115.3141464,
      "city": "Las Vegas",
      "address": "3700 S Hualapai Way"
    },
    {
      "title": "Foods 2 Go",
      "links": [
        {
          "name": "Yelp",
          "URL": "https://www.yelp.com/biz/foods-2-go-las-vegas"
        }
      ],
      "lat": 36.126310,
      "lon": -115.208010,
      "city": "Las Vegas",
      "address": "5000 S Decatur Blvd Ste 1"
    },
    {
      "title": "Hong Kong Caf√©",
      "links": [
        {
          "name": "site",
          "URL": "https://www.venetian.com/restaurants/hong-kong-cafe.html"
        },
        {
          "name": "Yelp",
          "URL": "https://www.yelp.com/biz/hong-kong-cafe-las-vegas"
        }
      ],
      "lat": 36.124650,
      "lon": -115.168800,
      "city": "Las Vegas",
      "address": "3325 Las Vegas Blvd S"
    },
    {
      "title": "Hong Kong Garden",
      "links": [
        {
          "name": "site",
          "URL": "http://www.hkgardenlasvegas.com/hk-garden.html"
        },
        {
          "name": "Yelp",
          "URL": "https://www.yelp.com/biz/hong-kong-garden-seafood-and-dim-sum-cafe-las-vegas"
        }
      ],
      "lat": 36.12599,
      "lon": -115.21381,
      "city": "Las Vegas",
      "address": "5300 Spring Mountain Rd"
    },
    {
      "title": "KJ Dim Sum & Seafood",
      "links": [
        {
          "name": "site",
          "URL": "https://www.caesars.com/rio-las-vegas/restaurants/kj-dim-sum-and-seafood"
        },
        {
          "name": "Yelp",
          "URL": "https://www.yelp.com/biz/kj-dim-sum-and-seafood-las-vegas"
        }
      ],
      "lat": 36.11563,
      "lon": -115.19167,
      "city": "Las Vegas",
      "address": "4000 W Flamingo Rd, Las Vegas"
    },
    {
      "title": "Lemongrass",
      "links": [
        {
          "name": "site",
          "URL": "https://aria.mgmresorts.com/en/restaurants/lemongrass.html"
        },
        {
          "name": "Yelp",
          "URL": "https://www.yelp.com/biz/lemongrass-las-vegas"
        }
      ],
      "lat": 36.110320,
      "lon": -115.177340,
      "city": "Las Vegas",
      "address": "3730 Las Vegas Blvd S"
    },
    {
      "title": "Lucky House Cafe",
      "links": [
        {
          "name": "Yelp",
          "URL": "https://www.yelp.com/biz/lucky-house-cafe-las-vegas"
        }
      ],
      "lat": 36.126040,
      "lon": -115.223160,
      "city": "Las Vegas",
      "address": "5960 W Spring Mountain Rd"
    },
    {
      "title": "New Asian BBQ",
      "links": [
        {
          "name": "Yelp",
          "URL": "https://www.yelp.com/biz/new-asian-bbq-tan-tung-ky-las-vegas"
        }
      ],
      "lat": 36.126430,
      "lon": -115.211520,
      "city": "Las Vegas",
      "address": "5150 Spring Mountain Rd Ste 6"
    },
    {
      "title": "Noodle House Chinese Restaurant",
      "links": [
        {
          "name": "site",
          "URL": "https://www.caesars.com/paris-las-vegas/restaurants/yong-kang-street"
        },
        {
          "name": "Yelp",
          "URL": "https://www.yelp.com/biz/noodle-house-las-vegas-3"
        }
      ],
      "lat": 36.112190,
      "lon": -115.172791,
      "city": "Las Vegas",
      "address": "3655 S Las Vegas Blvd"
    },
    {
      "title": "Orchids Garden Chinese Restaurant",
      "links": [
        {
          "name": "site",
          "URL": "http://www.orchidsgardenrestaurant.com"
        },
        {
          "name": "Yelp",
          "URL": "http://www.yelp.com/biz/orchids-garden-chinese-restaurant-las-vegas"
        }
      ],
      "lat": 36.1444811,
      "lon": -115.2167095,
      "city": "Las Vegas",
      "address": "5485 W Sahara Ave and Lindell Road"
    },
    {
      "title": "Ping Pang Pong",
      "links": [
        {
          "name": "site",
          "URL": "http://www.goldcoastcasino.com/dine/ping-pang-pong"
        },
        {
          "name": "Yelp",
          "URL": "http://www.yelp.com/biz/ping-pang-pong-las-vegas"
        }
      ],
      "lat": 36.1166353,
      "lon": -115.1929046,
      "city": "Las Vegas",
      "address": "4000 W Flamingo Rd"
    },
    {
      "title": "Rainbow Kitchen",
      "links": [
        {
          "name": "Yelp",
          "URL": "https://www.yelp.com/biz/rainbow-kitchen-las-vegas"
        }
      ],
      "lat": 36.166440,
      "lon": -115.244150,
      "city": "Las Vegas",
      "address": "7537 S Rainbow Blvd"
    },
    {
      "title": "Red 8",
      "links": [
        {
          "name": "site",
          "URL": "https://www.wynnlasvegas.com/dining/casual-dining/red-8"
        },
        {
          "name": "Yelp",
          "URL": "https://www.yelp.com/biz/red-8-las-vegas"
        }
      ],
      "lat": 36.126591,
      "lon": -115.165520,
      "city": "Las Vegas",
      "address": "3131 Las Vegas Blvd S"
    },
    {
      "title": "Tim Ho Wan",
      "links": [
        {
          "name": "site",
          "URL": "https://www.palms.com/eat-and-drink/tim-ho-wan-dim-sum"
        },
        {
          "name": "Yelp",
          "URL": "https://www.yelp.com/biz/tim-ho-wan-las-vegas-3"
        },
        {
          "name": "Wikipedia",
          "URL": "https://en.wikipedia.org/wiki/Tim_Ho_Wan"
        }
      ],
      "lat": 36.114689,
      "lon": -115.194946,
      "city": "Las Vegas",
      "address": "4321 W Flamingo Rd"
    },
    {
      "title": "Wazuzu",
      "links": [
        {
          "name": "site",
          "URL": "http://www.wynnlasvegas.com/Dining/CasualDining/Wazuzu"
        },
        {
          "name": "Yelp",
          "URL": "https://www.yelp.com/biz/wazuzu-las-vegas"
        }
      ],
      "lat": 36.126590,
      "lon": -115.165520,
      "city": "Las Vegas",
      "address": "3131 Las Vegas Blvd S"
    },
    {
      "title": "Yum Cha",
      "links": [
        {
          "name": "site",
          "URL": "http://lasvegasyumcha.com/"
        },
        {
          "name": "Yelp",
          "URL": "http://www.yelp.com/biz/yum-cha-las-vegas"
        }
      ],
      "lat": 36.0994132,
      "lon": -115.2083416,
      "city": "Las Vegas",
      "address": "4945 W Tropicana Ave, Paradise"
    }
  ]
}