{
    "name": "New Jersey",
    "places": [
        {
            "name": "Brother Seafood",
            "links": [
                {
                    "name": "site",
                    "URL": "https://www.brotherseafoodcherryhill.com/"
                }
            ],
            "lat": 39.88941858498515,
            "lon":  -75.01612330046585 ,
            "city": "Cherry Hill",
            "address": "1475 Brace Rd Cherry Hill, NJ 08034"
        },
        {
            "name": "Dim Sum II",
            "links": [
                {
                    "name": "site",
                    "URL": "https://www.dimsumllcranford.com/"
                }
            ],
            "lat": 40.65591480094676, 
            "lon": -74.3055163734987,
            "city": "Cranford",
            "address": "17 Eastman Street Second Floor Cranford, NJ 07016"
        },
        {
            "name": "Dim Sum",
            "links": [
                {
                    "name": "site",
                    "URL": "https://dimsumgogogo.com/"
                }
            ],
            "lat": 40.410955,
            "lon": -74.371446,
            "city": "East Brunswick",
            "address": "100 Main St, East Brunswick, NJ 08816"
        },
        {
            "name": "Golden Seafood Restaurant",
            "links": [
                {
                    "name": "Yelp",
                    "URL": "https://www.yelp.com/biz/golden-seafood-restaurant-edison-2"
                }
            ],
            "lat": 40.516070,
            "lon": -74.376720,
            "city": "Edison",
            "address": "518 Old Post Rd Ste 3 Edison, NJ 08817"
        },
        {
            "name": "Wonder Seafood Restaurant",
            "links": [
                {
                    "name": "Yelp",
                    "URL": "https://www.yelp.com/biz/wonder-seafood-restaurant-edison"
                }
            ],
            "lat": 40.520933,
            "lon": -74.394100,
            "city": "Edison",
            "address": "1984 State Route 27 Edison, NJ 08817"
        },
        {
            "name": "Aquarius Seafood Restaurant",
            "links": [
                {
                    "name": "site",
                    "URL": "http://aquariusrestaurantnj.com/"
                }
            ],
            "lat": 40.851630,
            "lon": -73.971810,
            "city": "Fort Lee",
            "address": "230-234 Main St Fort Lee, NJ 07024"
        },
        {
            "name": "Chengdu 1 Palace",
            "links": [
                {
                    "name": "Yelp",
                    "URL": "https://www.yelp.com/biz/chengdu-1-palace-green-brook-township-2"
                }
            ],
            "lat": 40.595510,
            "lon": -74.457460,
            "city": "Green Brook Township",
            "address": "100 Rt 22 W, Green Brook Township, NJ 08812"
        },
        {
            "name": "Green Lake",
            "links": [
                {
                    "name": "Yelp",
                    "URL": "https://www.yelp.com/biz/green-lake-restaurant-green-brook-township"
                }
            ],
            "lat": 40.609039024470384,
            "lon":  -74.46464465779894,
            "city": "Green Brook Township",
            "address": "19 US-22 Green Brook Township, NJ 08812"
        },
        {
            "name": "Dim Sum Station",
            "links": [
                {
                    "name": "site",
                    "URL": "https://www.dimsumstations.com/"
                }
            ],
            "lat": 40.889540,
            "lon": -74.038630,
            "city": "Hackensack",
            "address": "366 River Street, Hackensack, New Jersey 07601"
        },
        {
            "name": "Papa Noodles",
            "links": [
                {
                    "name": "Yelp",
                    "URL": "https://www.yelp.com/biz/papa-noodles-marlton-2"
                }
            ],
            "lat": 39.894992405308344,
            "lon":  -74.93906898996788,
            "city": "Marlton",
            "address": "746 Rte 70 W Marlton, NJ 08053"
        },
        {
            "name": "Qin Dynasty",
            "links": [
                {
                    "name": "Yelp",
                    "URL": "https://www.yelp.com/biz/qin-dynasty-parsippany"
                }
            ],
            "lat": 40.861379,
            "lon": -74.378043,
            "city": "Parsipanny",
            "address": "857 Us-46 Parsippany, NJ 07054"
        },
        {
            "name": "Dim Sum Dynasty",
            "links": [
                {
                    "name": "Yelp",
                    "URL": "https://www.yelp.com/biz/dim-sum-dynasty-ridgewood"
                }
            ],
            "lat": 40.981170,
            "lon": -74.117960,
            "city": "Ridgewood",
            "address": "75 Franklin Ave, Ridgewood, NJ 07450"
        },
        {
            "name": "Canton Palace Chinese Restaurant",
            "links": [
                {
                    "name": "site",
                    "URL": "http://www.njcantonpalace.com/"
                }
            ],
            "lat": 40.570297,
            "lon": -74.618116,
            "city": "Somerville",
            "address": "216 W Main St, Somerville, NJ 08876"
        },
        {
            "name": "Dim Sum and Then Some!",
            "links": [
                {
                    "name": "site",
                    "URL": "https://dimsumventnor.com/home"
                }
            ],
            "lat": 39.333420,
            "lon": -74.492588,
            "city": "Ventnor City",
            "address": "7317 Ventnor Avenue, Ventnor City, New Jersey 08406"
        },
        {
            "name": "DimSum Seafood Restaurant",
            "links": [
                {
                    "name": "Yelp",
                    "URL": "https://www.yelp.com/biz/dimsum-seafood-restaurant-woodbridge-township"
                }
            ],
            "lat": 40.573750,
            "lon": -74.291080,
            "city": "Woodbridge Township",
            "address": "1021 US Hwy1 S Woodbridge Township, NJ 07001"
        }
    ]
}
