{
    "name": "Oregon",
    "places": [
        {
            "title": "East Harbor",
            "links": [
                {
                    "name": "site",
                    "URL": "https://www.eastharborrestaurant.com/"
                },
                {
                    "name": "Yelp",
                    "URL": "https://www.yelp.com/biz/east-harbor-aloha-2"
                }
            ],
            "lat": 45.494773212731154,
            "lon": -122.87154989997468,
            "city": "Aloha",
            "address": "18855 SW Tualatin Valley Hwy Aloha, OR 97006"
        },
        {
            "title": "China Town Restaurant",
            "links": [
                {
                    "name": "site",
                    "URL": "http://www.chinatownor.com/"
                },
                {
                    "name": "Yelp",
                    "URL": "https://www.yelp.com/biz/china-town-restaurant-beaverton-2"
                }
            ],
            "lat": 45.511240,
            "lon": -122.822360,
            "city": "Beaverton",
            "address": "14125 SW Walker Rd, Beaverton, OR 97006"
        },
        {
            "title": "Spice 'N Steam",
            "links": [
                {
                    "name": "Yelp",
                    "URL": "https://www.yelp.com/biz/spice-n-steam-eugene"
                }
            ],
            "lat": 44.048030,
            "lon": -123.095230,
            "city": "Eugene",
            "address": "165 W 11th Ave Eugene, OR 97401"
        },
        {
            "title": "Best Taste To Go",
            "links": [
                {
                    "name": "Yelp",
                    "URL": "https://www.yelp.com/biz/best-taste-to-go-portland"
                }
            ],
            "lat": 45.504280,
            "lon": -122.577130,
            "city": "Portland",
            "address": "8350 SE Division St Portland, OR 97266"
        },
        {
            "title": "Excellent Cuisine",
            "links": [
                {
                    "name": "PDX Monthly",
                    "URL": "https://www.pdxmonthly.com/eat-and-drink/2022/09/excellent-cuisine-chinese-restaurant-dim-sum-review"
                },
                {
                    "name": "Yelp",
                    "URL": "https://www.yelp.com/biz/excellent-cuisine-portland"
                }
            ],
            "lat": 45.505227464147126,
            "lon": -122.5729184729908,
            "city": "Portland",
            "address": "8733 SE Division St Ste 101 Portland, OR 97266"
        },
        {
            "title": "Gold Garden Seafood Restaurant",
            "links": [
                {
                    "name": "Yelp",
                    "URL": "https://www.yelp.com/biz/gold-garden-seafood-restaurant-portland-2"
                }
            ],
            "lat": 45.510620,
            "lon": -122.537300,
            "city": "Portland",
            "address": "1818 SE 122nd Ave Portland, OR 97233"
        },
        {
            "title": "Goodworld Chinese Restaurant",
            "links": [
                {
                    "name": "site",
                    "URL": "http://www.goodworldchinese.com/"
                },
                {
                    "name": "Yelp",
                    "URL": "https://www.yelp.com/biz/goodworld-chinese-restaurant-portland-2"
                }
            ],
            "lat": 45.560140,
            "lon": -122.538150,
            "city": "Portland",
            "address": "5055 NE 122nd Ave Portland, OR 97230"
        },
        {
            "title": "HK Cafe",
            "links": [
                {
                    "name": "Yelp",
                    "URL": "https://www.yelp.com/biz/h-k-caf%C3%A9-portland-3"
                }
            ],
            "lat": 45.4905049,
            "lon": -122.5779608,
            "city": "Portland",
            "address": "4410 SE 82nd Ave, Portland, OR 97266"
        },
        {
            "title": "Ocean City Seafood Restaurant",
            "links": [
                {
                    "name": "Yelp",
                    "URL": "https://www.yelp.com/biz/ocean-city-seafood-restaurant-portland"
                }
            ],
            "lat": 45.500260,
            "lon": -122.578190,
            "city": "Portland",
            "address": "3016 SE 82nd Ave, Portland, OR 97266"
        },
        {
            "title": "Pure Spice",
            "links": [
                {
                    "name": "site",
                    "URL": "http://www.purespicerestaurant.com/"
                },
                {
                    "name": "Yelp",
                    "URL": "https://www.yelp.com/biz/pure-spice-portland"
                }
            ],
            "lat": 45.504970,
            "lon": -122.573960,
            "city": "Portland",
            "address": "2446 SE 87th Ave Ste 101 Portland, OR 97216"
        },
        {
            "title": "Queenz Asian Cuisine",
            "links": [
                {
                    "name": "site",
                    "URL": "https://queenzllc.com/"
                },
                {
                    "name": "Yelp",
                    "URL": "https://www.yelp.com/biz/queenz-asian-cuisine-portland"
                }
            ],
            "lat": 45.485748,
            "lon": -122.761971,
            "city": "Portland",
            "address": "8225 SW Apple Way, Portland, OR 97225"
        },
        {
            "title": "Yong Kang Street",
            "links": [
                {
                    "name": "Yelp",
                    "URL": "https://www.yelp.com/biz/yong-kang-street-portland"
                }
            ],
            "lat": 45.518640,
            "lon": -122.677420,
            "city": "Portland",
            "address": "700 SW 5th Ave Portland, OR 97204"
        },
        {
            "title": "Canton Phoenix",
            "links": [
                {
                    "name": "site",
                    "URL": "https://www.cantonphoenix.com/"
                },
                {
                    "name": "Yelp",
                    "URL": "https://www.yelp.com/biz/canton-phoenix-tigard"
                }
            ],
            "lat": 45.415600,
            "lon": -122.790910,
            "city": "Tigard",
            "address": "14455 SW Pacific Hwy Tigard, OR 97224"
        }
    ]
}
