{
  "name": "Pennsylvania",
  "places": [
    {
      "name": "Noval Kitchen",
      "links": [
        {
          "name": "Yelp",
          "URL": "https://www.yelp.com/biz/noval-kitchen-bethlehem"
        }
      ],
      "lat": 40.64211754470242,
      "lon": -75.35100111547021,
      "city": "Bethelehem",
      "address": "2342 Easton Ave Bethlehem, PA 18017"
    },
    {
      "name": "Dim Sum Factory",
      "links": [
        {
          "name": "site",
          "URL": "https://dimsumfactoryusa.com/store1.html"
        }
      ],
      "lat": 40.18085665141482,
      "lon": -75.13469157116393,
      "city": "Horsham",
      "address": "303 Horsham Road, Horsham, PA 19044"
    },
    {
      "name": "Tom's Dim Sum",
      "links": [
        {
          "name": "site",
          "URL": "http://tomsdimsum.com/"
        }
      ],
      "lat": 39.91803,
      "lon": -75.38883,
      "city": "Media",
      "address": "13 E State St Media, PA 19063"
    },
    {
      "name": "M&M Dim Sum",
      "links": [
        {
          "name": "Yelp",
          "URL": "https://www.yelp.com/biz/m-and-m-dim-sum-paoli"
        }
      ],
      "lat": 40.04184512664297,
      "lon": -75.47396031548787,
      "city": "Paoli",
      "address": "1776 E Lancaster Ave Paoli, PA 19301"
    },
    {
      "name": "Dim Sum & Noodle",
      "links": [
        {
          "name": "site",
          "URL": "https://www.dimsumandnoodle.com/"
        }
      ],
      "lat": 39.96218,
      "lon": -75.17219,
      "city": "Philadelphia",
      "address": "2000 Hamilton St Ste 104 Philadelphia, PA 19130"
    },
    {
      "name": "Dim Sum Factory",
      "links": [
        {
          "name": "site",
          "URL": "https://dimsumfactoryusa.com/store1.html"
        }
      ],
      "lat": 40.08348965688984,
      "lon": -75.04821287116391,
      "city": "Philadelphia",
      "address": "8925 Krewstown Rd Philadelphia PA 19115 "
    },
    {
      "name": "Dim Sum Garden",
      "links": [
        {
          "name": "site",
          "URL": "http://www.dimsumgardenphilly.com/"
        }
      ],
      "lat": 39.955143,
      "lon": -75.156816,
      "city": "Philadelphia",
      "address": "1020 Race St, Philadelphia, PA 19107"
    },
    {
      "name": "Dim Sum House Rittenhouse",
      "links": [
        {
          "name": "site",
          "URL": "http://dimsum.house/"
        }
      ],
      "lat": 39.955956,
      "lon": -75.201645,
      "city": "Philadelphia",
      "address": "1930 Chestnut St, Philadelphia, PA 19102"
    },
    {
      "name": "Dim Sum House University City",
      "links": [
        {
          "name": "site",
          "URL": "http://dimsum.house/"
        }
      ],
      "lat": 39.955956,
      "lon": -75.201645,
      "city": "Philadelphia",
      "address": "3939 Chestnut St, Fl 2, Philadelphia, PA 19104"
    },
    {
      "name": "Grand Palace",
      "links": [
        {
          "name": "site",
          "URL": "https://www.grandpalacechineserestaurant.com/"
        },
        {
          "name": "Philadelphia Inquirer",
          "URL": "https://www.inquirer.com/food/dim-sum-cart-philadelphia-20221028.html"
        }
      ],
      "lat": 39.93467269201024,
      "lon": -75.15500483083531,
      "city": "Philadelphia",
      "address": "600 Washington Ave Philadelphia, PA 19147"
    },
    {
      "name": "Jade Harbor",
      "links": [
        {
          "name": "Yelp",
          "URL": "https://www.yelp.com/biz/jade-harbor-philadelphia-3"
        }
      ],
      "lat": 40.03078,
      "lon": -75.07329,
      "city": "Philadelphia",
      "address": "6863 Bustleton Ave Philadelphia, PA 19149"
    },
    {
      "name": "Nom Wah",
      "links": [
        {
          "name": "site",
          "URL": "https://nomwah.com/philadelphia/"
        }
      ],
      "lat": 39.956585,
      "lon": -75.160771,
      "city": "Philadelphia",
      "address": "218 N 13th St Philadelphia, PA 19107"
    },
    {
      "name": "Ocean City",
      "links": [
        {
          "name": "Yelp",
          "URL": "https://www.yelp.com/biz/ocean-city-restaurant-philadelphia"
        }
      ],
      "lat": 39.95621,
      "lon": -75.15434,
      "city": "Philadelphia",
      "address": "234 N 9th St Philadelphia, PA 19107"
    },
    {
      "name": "Ocean Harbor",
      "links": [
        {
          "name": "Yelp",
          "URL": "https://www.yelp.com/biz/ocean-harbor-philadelphia"
        }
      ],
      "lat": 39.95568,
      "lon": -75.15673,
      "city": "Philadelphia",
      "address": "1023 Race St Philadelphia, PA 19107"
    },
    {
      "name": "Sang Kee Noodle House",
      "links": [
        {
          "name": "Yelp",
          "URL": "https://www.yelp.com/biz/sang-kee-noodle-house-philadelphia"
        }
      ],
      "lat": 39.954762,
      "lon": -75.193871,
      "city": "Philadelphia",
      "address": "3549 Chestnut St Philadelphia, PA 19104"
    },
    {
      "name": "Tom's Dim Sum",
      "links": [
        {
          "name": "site",
          "URL": "http://tomsdimsum.com/"
        }
      ],
      "lat": 39.95328,
      "lon": -75.15798,
      "city": "Philadelphia",
      "address": "59 N 11th St Philadelphia, PA 19107"
    },
    {
      "name": "Wokano",
      "links": [
        {
          "name": "The Infatuation",
          "URL": "https://www.theinfatuation.com/philadelphia/reviews/wokano-chinese-cuisine"
        }
      ],
      "lat": 39.93393,
      "lon": -75.14814,
      "city": "Philadelphia",
      "address": "1100 Washington Ave Philadelphia, PA 19147"
    },
    {
      "name": "Dim Sum Court",
      "links": [
        {
          "name": "site",
          "URL": "https://www.dimsumcourt.com/"
        }
      ],
      "lat": 40.133863240209536,
      "lon": -75.5175712744111,
      "city": "Phoenixville",
      "address": "236 Bridge St, Phoenixville, PA 19460-3495"
    },
    {
      "name": "Parlor Dim Sum",
      "links": [
        {
          "name": "site",
          "URL": "https://theparlordimsum.com/"
        },
        {
          "name": "Post-Gazette",
          "URL": "https://www.post-gazette.com/life/dining/2022/08/29/parlor-dim-sum-lawrenceville-open/stories/202208260100"
        }
      ],
      "lat": 40.47183495174677,
      "lon": -79.95984741587239,
      "city": "Pittsburgh",
      "address": "401 Butler St, Pittsburgh, PA 1520"
    },
    {
      "name": "Wei Lai Dim Sum",
      "links": [
        {
          "name": "site",
          "URL": "https://www.weilaidimsumpa.com/"
        }
      ],
      "lat": 40.553542151411406,
      "lon": -80.01556670322701,
      "city": "Pittsburgh",
      "address": "3200 McIntyre Square Dr, Pittsburgh, PA 15237"
    }
  ]
}
