{
  "name": "Texas",
  "places": [
    {
      "name": "ABC Seafood Chinese Restaurant",
      "links": [
        {
          "name": "Yelp",
          "URL": "https://www.yelp.com/biz/abc-sea-food-chinese-restaurant-arlington"
        }
      ],
      "lat": 32.70502,
      "lon": -97.06696,
      "city": "Arlington",
      "address": "2420 E Arkansas Ln, Ste 216, Arlington, TX 76014"
    },
    {
      "name": "Kowloon Chinese Seafood",
      "links": [
        {
          "name": "Yelp",
          "URL": "https://www.yelp.com/biz/kowloon-chinese-seafood-restaurant-arlington"
        }
      ],
      "lat": 32.70725,
      "lon": -97.10905,
      "city": "Arlington",
      "address": "100 W Pioneer Pkwy, Ste 146, Arlington, TX 76010"
    },
    {
      "name": "Chinatown North",
      "links": [
        {
          "name": "site",
          "URL": "https://chinatownrestaurantsaustin.com/north-austin"
        }
      ],
      "lat": 30.356773754921992,
      "lon": -97.74749497341438,
      "city": "Austin",
      "address": "3407 Greystone Dr Austin, TX 78731"
    },
    {
      "name": "Chinatown Westlake",
      "links": [
        {
          "name": "site",
          "URL": "https://chinatownrestaurantsaustin.com/west-lake-hills"
        }
      ],
      "lat": 30.27148,
      "lon": -97.78619,
      "city": "Austin",
      "address": "2712 Bee Cave Rd Ste 124 Austin, TX 78746"
    },
    {
      "name": "Jade Restaurant",
      "links": [
        {
          "name": "site",
          "URL": "http://www.jaderestaurantaustin.com/"
        }
      ],
      "lat": 30.30557,
      "lon": -97.82533,
      "city": "Austin",
      "address": "3801 N Capital Of Texas Hwy, C200, Austin, TX 78746"
    },
    {
      "name": "Lin Asian Bar and Dim Sum",
      "links": [
        {
          "name": "site",
          "URL": "https://www.linasianbar.com/"
        }
      ],
      "lat": 30.273047292231237,
      "lon": -97.75804273108845,
      "city": "Austin",
      "address": "1203 W 6th St Austin, TX 78703"
    },
    {
      "name": "Ling Wu",
      "links": [
        {
          "name": "site",
          "URL": "https://lingwuatx.com/"
        },
        {
          "name": "Austin-American Statesman",
          "URL": "https://www.statesman.com/story/entertainment/dining/2023/02/15/austin-lin-asian-bar-qi-ling-wu-asian-chinese-restaurant-opening/69906342007/"
        },
        {
          "name": "Eater",
          "URL": "https://austin.eater.com/2023/2/15/23601066/ling-wu-asian-restaurant-austin-open-chinese-food-lantana-place-chef-ling-qi-wu"
        }
      ],
      "lat": 30.256685924351427,
      "lon": -97.87042501607606,
      "city": "Austin",
      "address": "7415 Southwest Pkwy Austin, TX 78735"
    },
    {
      "name": "Qi",
      "links": [
        {
          "name": "site",
          "URL": "https://qiaustin.com/"
        }
      ],
      "lat": 30.270778803733112,
      "lon": -97.7523749872405,
      "city": "Austin",
      "address": "835 W 6th St Ste 114 Austin, TX 78703"
    },
    {
      "name": "Shanghai Restaurant",
      "links": [
        {
          "name": "site",
          "URL": "https://www.dimsumshanghai.com/"
        }
      ],
      "lat": 30.32915,
      "lon": -97.70687,
      "city": "Austin",
      "address": "6718 Middle Fiskville Rd Austin, TX 78752"
    },
    {
      "name": "Wu Chow",
      "links": [
        {
          "name": "site",
          "URL": "https://wuchowaustin.com/"
        }
      ],
      "lat": 30.26867,
      "lon": -97.74784,
      "city": "Austin",
      "address": "500 W 5th St Austin, TX 78701"
    },
    {
      "name": "Xian Noodles",
      "links": [
        {
          "name": "site",
          "URL": "https://www.xianfresh.com/"
        }
      ],
      "lat": 30.40038,
      "lon": -97.72716,
      "city": "Austin",
      "address": "3401 Esperanza Crossing Ste 106 Austin, TX 78758"
    },
    {
      "name": "Duck 'n Bao",
      "links": [
        {
          "name": "site",
          "URL": "https://ducknbao.com/"
        }
      ],
      "lat": 29.972257544067123,
      "lon": -95.68920420368008,
      "city": "Cypress",
      "address": "17333 Spring Cypress Rd Suite H, Cypress, TX 77429"
    },
    {
      "name": "Bushi Bushi",
      "links": [
        {
          "name": "site",
          "URL": "https://www.bushi4930.com/"
        }
      ],
      "lat": 32.95395,
      "lon": -96.82742,
      "city": "Dallas",
      "address": "4930 Belt Line Rd, Ste 100, Dallas, TX 75254"
    },
    {
      "name": "Li Min Dim Sum",
      "links": [
        {
          "name": "Yelp",
          "URL": "https://www.yelp.com/biz/li-min-dim-sum-dallas"
        }
      ],
      "lat": 32.999580133788506,
      "lon": -96.79827027494512,
      "city": "Dallas",
      "address": "18101 Preston Rd Ste 106 Dallas, TX 75252"
    },
    {
      "name": "Garden Restaurant",
      "links": [
        {
          "name": "Yelp",
          "URL": "https://www.yelp.com/biz/garden-restaurant-garland"
        }
      ],
      "lat": 32.91753,
      "lon": -96.68337,
      "city": "Garland",
      "address": "3555 W Walnut St, Garland, TX 75042"
    },
    {
      "name": "The Pearl",
      "links": [
        {
          "name": "site",
          "URL": "https://www.thepearlatats.com/"
        }
      ],
      "lat": 32.71147,
      "lon": -97.03969,
      "city": "Grand Prairie",
      "address": "2625 W Pioneer Pkwy, Grand Prairie, TX 75051"
    },
    {
      "name": "Chef Kenny's Asian Vegan",
      "links": [
        {
          "name": "site",
          "URL": "https://www.chefkennyshouston.com/"
        }
      ],
      "lat": 29.714851199713447,
      "lon": -95.57204853067311,
      "city": "Houston",
      "address": "6128 Wilcrest Dr, Houston, TX 77072"
    },
    {
      "name": "Crown Seafood Restaurant",
      "links": [
        {
          "name": "Yelp",
          "URL": "https://www.yelp.com/biz/crown-seafood-restaurant-houston"
        }
      ],
      "lat": 29.70361,
      "lon": -95.5884,
      "city": "Houston",
      "address": "10796 Bellaire Blvd, Ste C, Houston, TX 77072"
    },
    {
      "name": "Dim Sum King",
      "links": [
        {
          "name": "site",
          "URL": "https://www.dimsumkingtx.com/"
        }
      ],
      "lat": 29.70504,
      "lon": -95.5249,
      "city": "Houston",
      "address": "9160 Bellaire Blvd, Ste B, Houston, TX 77036"
    },
    {
      "name": "Duck 'n Bao",
      "links": [
        {
          "name": "site",
          "URL": "https://ducknbao.com/"
        }
      ],
      "lat": 29.761026249997872,
      "lon": -95.41720903067149,
      "city": "Houston",
      "address": "5535 Memorial Dr Suite O, Houston TX 77007"
    },
    {
      "name": "Fung's Kitchen",
      "links": [
        {
          "name": "site",
          "URL": "https://fungskitchen.com/"
        }
      ],
      "lat": 29.70267,
      "lon": -95.51649,
      "city": "Houston",
      "address": "7320 Sw Fwy, Ste 115, Houston, TX 77074"
    },
    {
      "name": "Ginger and Fork",
      "links": [
        {
          "name": "site",
          "URL": "https://www.gingerandforkrestaurant.com/"
        }
      ],
      "lat": 29.7753741,
      "lon": -95.4109724,
      "city": "Houston",
      "address": "4705 Inker St Houston, TX 77007"
    },
    {
      "name": "Golden Dim Sum",
      "links": [
        {
          "name": "site",
          "URL": "https://www.goldendimsumrestaurant.com/"
        }
      ],
      "lat": 29.70467,
      "lon": -95.56691,
      "city": "Houston",
      "address": "10600 Bellaire Blvd, Ste 105, Houston, TX 77072"
    },
    {
      "name": "Golden Dim Sum 2",
      "links": [
        {
          "name": "Yelp",
          "URL": "https://www.yelp.com/biz/golden-dim-sum-houston-3"
        }
      ],
      "lat": 29.706366095063007,
      "lon": -95.554890032526,
      "city": "Houston",
      "address": "9968 Bellaire Blvd Ste 160 Houston, TX 77036"
    },
    {
      "name": "HK Dim Sum",
      "links": [
        {
          "name": "site",
          "URL": "https://hkdimsum.kwickmenu.com/"
        }
      ],
      "lat": 29.70339,
      "lon": -95.55362,
      "city": "Houston",
      "address": "9889 Bellaire Blvd, Ste 110, Houston, TX 77036"
    },
    {
      "name": "Kim Son",
      "links": [
        {
          "name": "site",
          "URL": "http://www.kimson.com/"
        }
      ],
      "lat": 29.70326,
      "lon": -95.56808,
      "city": "Houston",
      "address": "10603 Bellaire Blvd, Houston, TX 77072"
    },
    {
      "name": "Ocean Palace",
      "links": [
        {
          "name": "site",
          "URL": "http://www.oceanpalacehouston.com/"
        }
      ],
      "lat": 29.70308,
      "lon": -95.57893,
      "city": "Houston",
      "address": "11215 Bellaire Blvd, Houston, TX 77072"
    },
    {
      "name": "Shanghai Restaurant",
      "links": [
        {
          "name": "Yelp",
          "URL": "https://www.yelp.com/biz/shanghai-restaurant-%E6%9D%B1%E9%9B%B2%E9%96%A3-houston"
        }
      ],
      "lat": 29.70681926950232,
      "lon": -95.55306920368992,
      "city": "Houston",
      "address": "9888 Bellaire Blvd Ste 106 Houston, TX 77036"
    },
    {
      "name": "Taste of Mulan",
      "links": [
        {
          "name": "site",
          "URL": "https://tasteofmulan.com/"
        }
      ],
      "lat": 29.75081,
      "lon": -95.37561,
      "city": "Houston",
      "address": "510 Gray Street, Houston, TX 77072"
    },
    {
      "name": "Dim Sum Box",
      "links": [
        {
          "name": "site",
          "URL": "https://dimsumboxkaty.com/"
        }
      ],
      "lat": 29.789768847786853,
      "lon": -95.77070064459123,
      "city": "Katy",
      "address": "1223 Grand W Blvd Bldg B, Unit B-107 Katy, TX 77449"
    },
    {
      "name": "Tim Ho Wan",
      "links": [
        {
          "name": "site",
          "URL": "http://timhowanusa.com/"
        },
        {
          "name": "Community Impact",
          "URL": "https://communityimpact.com/houston/katy/dining/2022/11/07/tim-ho-wan-opens-katy-restaurant/"
        }
      ],
      "lat": 29.788906538546968,
      "lon": -95.77288731575521,
      "city": "Katy",
      "address": "23330 Grand Circle Blvd, Suite 180, Katy, TX 77449"
    },
    {
      "name": "JS Chen's Dim Sum & BBQ",
      "links": [
        {
          "name": "site",
          "URL": "https://www.jschensbbq.com/"
        }
      ],
      "lat": 33.06736,
      "lon": -96.69441,
      "city": "Plano",
      "address": "240 Legacy, Ste 118 Plano, TX 75023"
    },
    {
      "name": "Zhang's Kitchen",
      "links": [
        {
          "name": "site",
          "URL": "http://zhangskitchentexas.com/"
        }
      ],
      "lat": 33.06966,
      "lon": -96.71106,
      "city": "Plano",
      "address": "3948 Legacy Dr, Ste 103, Plano, TX 75023"
    },
    {
      "name": "Golden Joy BBQ",
      "links": [
        {
          "name": "site",
          "URL": "http://www.goldenjoy-bbq.com/"
        }
      ],
      "lat": 32.94621,
      "lon": -96.69785,
      "city": "Richardson",
      "address": "1475 Belt Line Rd, Ste 260, Richardson, TX 75081"
    },
    {
      "name": "Kirin Court Chinese Restaurant",
      "links": [
        {
          "name": "site",
          "URL": "http://www.kirincourt.com/"
        }
      ],
      "lat": 32.94887,
      "lon": -96.73449,
      "city": "Richardson",
      "address": "221 W Polk St, Ste 210, Richardson, TX 75081"
    },
    {
      "name": "Dim Sum Oriental Cuisine",
      "links": [
        {
          "name": "My San Antonio",
          "URL": "https://www.mysanantonio.com/food/restaurants/article/Review-Dim-Sum-Oriental-Cuisine-a-Chinese-dim-14359057.php"
        }
      ],
      "lat": 29.542046462234815,
      "lon": -98.52702545951557,
      "city": "San Antonio",
      "address": "2313 NW Military Highway, Suite 125 San Antonio, TX 78231"
    },
    {
      "name": "Golden Wok",
      "links": [
        {
          "name": "site",
          "URL": "http://www.goldenwoksa.com/"
        }
      ],
      "lat": 29.52461,
      "lon": -98.56784,
      "city": "San Antonio",
      "address": "8822 Wurzbach Rd San Antonio, TX 78240"
    },
    {
      "name": "New Palace",
      "links": [
        {
          "name": "site",
          "URL": "https://newpalacestafford.kwickmenu.com/"
        }
      ],
      "lat": 29.634292419676214,
      "lon": -95.58505975808659,
      "city": "Stafford",
      "address": "12755 Sw Fwy Stafford, TX 77477"
    }
  ]
}
