{
    "name": "Utah",
    "places": [
        {
            "name": "China Town Eatery",
            "links": [
                {
                    "name": "site",
                    "URL": "https://chinatowneatery12.wixsite.com/chinatowneateryslc"
                }
            ],
            "lat": 40.69824529593155,
            "lon": -111.88905464466228,
            "city": "Salt Lake City",
            "address": "3370 S State St Ste 3 Salt Lake City, UT 84115"
        },
        {
            "name": "Ho Ho Gourmet",
            "links": [
                {
                    "name": "Yelp",
                    "URL": "https://www.yelp.com/biz/ho-ho-gourmet-salt-lake-city"
                }
            ],
            "lat": 40.736950,
            "lon": -111.888880,
            "city": "Salt Lake City",
            "address": "1504 S State St, Salt Lake City, UT 84115"
        },
        {
            "name": "Hong Kong Tea House",
            "links": [
                {
                    "name": "site",
                    "URL": "http://hongkongteahouse.yolasite.com/"
                }
            ],
            "lat": 40.764910,
            "lon": -111.905520,
            "city": "Salt Lake City",
            "address": "565 W 200th S, Salt Lake City, UT 84101"
        },
        {
            "name": "New Golden Dragon",
            "links": [
                {
                    "name": "site",
                    "URL": "https://www.newgoldendragonslc.com/"
                }
            ],
            "lat": 40.733110,
            "lon": -111.888710,
            "city": "Salt Lake City",
            "address": "1716 S State St, Salt Lake City, UT 84115"
        },
        {
            "name": "Cafe Anh Hong",
            "links": [
                {
                    "name": "Yelp",
                    "URL": "https://www.yelp.com/biz/cafe-anh-hong-sandy-2"
                }
            ],
            "lat": 40.581620,
            "lon": -111.851480,
            "city": "Sandy",
            "address": "8650 S 1300th E Sandy, UT 84094"
        },
        {
            "name": "Red Maple Chinese Restaurant",
            "links": [
                {
                    "name": "site",
                    "URL": "http://www.redmaplechinese.com/"
                }
            ],
            "lat": 40.692000,
            "lon": -111.945980,
            "city": "Taylorsville",
            "address": "2882 W 4700th S, Taylorsville, UT 84119"
        }
    ]
}
