{
    "name": "Virginia",
    "places": [
        {
            "name": "Sampan Cafe",
            "links": [
                {
                    "name": "site",
                    "URL": "https://www.sampancafealexandria.com/"
                }
            ],
            "lat": 38.782619,
            "lon": -77.147552,
            "city": "Alexandria",
            "address": "6116 Franconia Rd Alexandria, VA 22310"
        },
        {
            "name": "Hong Kong Pearl Seafood",
            "links": [
                {
                    "name": "Yelp",
                    "URL": "https://www.yelp.com/biz/hong-kong-pearl-seafood-restaurant-falls-church"
                }
            ],
            "lat": 38.872480,
            "lon": -77.152750,
            "city": "Falls Church",
            "address": "6286 Arlington Blvd, Falls Church, VA 22044"
        },
        {
            "name": "Mark's Duck House",
            "links": [
                {
                    "name": "site",
                    "URL": "https://marksduckhouse.godaddysites.com/"
                }
            ],
            "lat": 38.870040,
            "lon": -77.147530,
            "city": "Falls Church",
            "address": "6184 Arlington Blvd, Falls Church, VA 22044"
        },
        {
            "name": "Vinh Kee",
            "links": [
                {
                    "name": "site",
                    "URL": "https://www.vinhkeerestaurant.com/"
                }
            ],
            "lat": 38.865722606906424,
            "lon":  -77.19365747319411,
            "city": "Falls Church",
            "address": "3103 Graham Rd Ste D Falls Church, VA 22042"
        },
        {
            "name": "Han Palace",
            "links": [
                {
                    "name": "site",
                    "URL": "http://www.hanpalacedimsum.com/"
                }
            ],
            "lat": 38.924760,
            "lon": -77.217180,
            "city": "McLean",
            "address": "7900 Westpark Dr. McLean, VA 22102"
        },
        {
            "name": "And Dim Sum",
            "links": [
                {
                    "name": "site",
                    "URL": "https://www.anddimsumbar.com/"
                }
            ],
            "lat": 37.54656891410604,
            "lon": -77.44243033232219,
            "city": "Richmond",
            "address": "305 Brook Rd Richmond, VA 23220"
        },
        {
            "name": "Full Kee",
            "links": [
                {
                    "name": "Yelp",
                    "URL": "https://www.yelp.com/biz/full-kee-restaurant-richmond-2"
                }
            ],
            "lat": 37.59560589091205,
            "lon": -77.51530741685723,
            "city": "McLean",
            "address": "6400 Horsepen Rd Richmond, VA 23226"
        }
    ]
}
