{
    "name": "Washington",
    "places": [
        {
            "name": "Dim Sum Factory",
            "links": [
                {
                    "name": "site",
                    "URL": "http://dimsumfactory.com/"
                }
            ],
            "lat": 47.575290,
            "lon": -122.170140,
            "city": "Bellevue",
            "address": "4092 Factoria Mall Blvd SE, Bellevue, WA 98006"
        },
        {
            "name": "Royal Kitchen",
            "links": [
                {
                    "name": "site",
                    "URL": "https://www.royalkitchenbellevue.com/"
                }
            ],
            "lat": 47.628590,
            "lon": -122.164340,
            "city": "Bellevue",
            "address": "13200 NE 20th St Ste 400 Bellevue, WA 98005"
        },
        {
            "name": "Top Gun",
            "links": [
                {
                    "name": "site",
                    "URL": "http://www.topgunrestaurants.com/"
                }
            ],
            "lat": 47.578030,
            "lon": -122.172690,
            "city": "Bellevue",
            "address": "12450 SE 38th St, Bellevue, WA 98006"
        },
        {
            "name": "Fashion Dim Sum",
            "links": [
                {
                    "name": "site",
                    "URL": "http://www.fashiondimsum.com/"
                }
            ],
            "lat": 47.791180,
            "lon": -122.337110,
            "city": "Edmonds",
            "address": "22923 Hwy 99, Edmonds, WA 98026"
        },
        {
            "name": "T&T Seafood",
            "links": [
                {
                    "name": "site",
                    "URL": "http://tandtseafoodrestaurant.com/"
                }
            ],
            "lat": 47.794720,
            "lon": -122.333820,
            "city": "Edmonds",
            "address": "22511 Hwy 99, Ste 103, Edmonds, WA 98026"
        },
        {
            "name": "Engimono Ramen & Dim Sum",
            "links": [
                {
                    "name": "site",
                    "URL": "http://www.engimonoramendimsum.com/"
                }
            ],
            "lat": 47.31242915913376, 
            "lon": -122.31505741562796,
            "city": "Federal Way",
            "address":"1426 S 324th St Suite B-201 Federal Way, WA 9800"
        },
        {
            "name": "Macky's Dim Sum",
            "links": [
                {
                    "name": "Weeblyte",
                    "URL": "https://mackys-dim-sum.weeblyte.com/"
                }
            ],
            "lat": 47.530222,
            "lon": -122.036075,
            "city": "Issaquah",
            "address": "28 E Sunset Way Issaquah, WA 98027"
        },
        {
            "name": "Imperial Garden",
            "links": [
                {
                    "name": "site",
                    "URL": "https://mywali.co/business/imperialgardenkent/index.html"
                }
            ],
            "lat": 47.438710,
            "lon": -122.220710,
            "city": "Kent",
            "address": "18230 E Valley Hwy, Ste 116, Kent, WA 98032"
        },
        {
            "name": "Lucky House",
            "links": [
                {
                    "name": "site",
                    "URL": "http://www.luckyhouseinkent.com/"
                }
            ],
            "lat": 47.383570,
            "lon": -122.230200,
            "city": "Kent",
            "address": "317 E Smith St Kent, WA 98030t"
        },
        {
            "name": "Early Bird Cafe",
            "links": [
                {
                    "name": "site",
                    "URL": "https://kirklandearlybirdcafe.com/"
                }
            ],
            "lat": 47.66712200846537,
            "lon": -122.19689673059133,
            "city": "Kirkland",
            "address": "967 6th St S Kirkland, WA 98033"
        },
        {
            "name": "U Lin Asian Bistro",
            "links": [
                {
                    "name": "site",
                    "URL": "https://ulinasianbistrolynnwood.com/"
                }
            ],
            "lat": 47.848410,
            "lon": -122.248780,
            "city": "Lynwood",
            "address": "1120 164th St SW, Lynnwood, WA 98087"
        },
        {
            "name": "Renton Seafood",
            "links": [
                {
                    "name": "Yelp",
                    "URL": "https://www.yelp.com/biz/renton-seafood-restaurant-renton"
                }
            ],
            "lat": 47.488910,
            "lon": -122.162120,
            "city": "Renton",
            "address": "4250 NE 4th St Ste A Renton, WA 98059"
        },
        {
            "name": "Triumph Valley",
            "links": [
                {
                    "name": "site",
                    "URL": "https://www.triumphvalley.com/"
                }
            ],
            "lat": 47.44580223109299,
            "lon": -122.2174664163634,
            "city": "Renton",
            "address": "3750 E Valley Rd Renton, WA 98057"
        },
        {
            "name": "Bamboo Village",
            "links": [
                {
                    "name": "site",
                    "URL": "https://seattlebamboovillage.com/"
                }
            ],
            "lat": 47.664520,
            "lon": -122.340300,
            "city": "Seattle",
            "address": "4900 Stone Way N, Seattle, WA 98103"
        },
        {
            "name": "Beacon BBQ",
            "links": [
                {
                    "name": "Yelp",
                    "URL": "https://www.yelp.com/biz/beacon-b-b-q-seattle-2"
                }
            ],
            "lat": 47.558520,
            "lon": -122.303660,
            "city": "Seattle",
            "address": "4886 Beacon Ave S, Seattle, WA 98108"
        },
        {
            "name": "Dim Sum House",
            "links": [
                {
                    "name": "Yelp",
                    "URL": "https://www.yelp.com/biz/dim-sum-house-seattle"
                }
            ],
            "lat": 47.559100,
            "lon": -122.304010,
            "city": "Seattle",
            "address": "4860 Beacon Ave S, Seattle, WA 98108"
        },
        {
            "name": "Dim Sum King",
            "links": [
                {
                    "name": "Yelp",
                    "URL": "https://www.yelp.com/biz/dim-sum-king-seattle"
                }
            ],
            "lat": 47.599200,
            "lon": -122.325720,
            "city": "Seattle",
            "address": "617 S Jackson St, Seattle, WA 98104"
        },
        {
            "name": "Foo Lam",
            "links": [
                {
                    "name": "Yelp",
                    "URL": "https://www.yelp.com/biz/foo-lam-chinese-restaurant-seattle"
                }
            ],
            "lat": 47.538550,
            "lon": -122.282740,
            "city": "Seattle",
            "address": "7101 Martin Luther King Jr Way S, Seattle, WA 98118"
        },
        {
            "name": "Golden Daisy Restaurant",
            "links": [
                {
                    "name": "site",
                    "URL": "https://goldendaisyrestaurant.weebly.com/"
                }
            ],
            "lat": 47.580490,
            "lon": -122.313080,
            "city": "Seattle",
            "address": "2518 Beacon Ave S, Seattle, WA 98144"
        },
        {
            "name": "Harbor City",
            "links": [
                {
                    "name": "site",
                    "URL": "https://harborcityseattle.com/"
                }
            ],
            "lat": 47.598240,
            "lon": -122.323387,
            "city": "Seattle",
            "address": "707 S King St, Seattle, WA 98104"
        },
        {
            "name": "Honey Court Seafood Restaurant",
            "links": [
                {
                    "name": "Yelp",
                    "URL": "https://www.yelp.com/biz/honey-court-seafood-restaurant-seattle-2"
                }
            ],
            "lat": 47.597810,
            "lon": -122.324900,
            "city": "Seattle",
            "address": "516 Maynard Ave S, Seattle, WA 98104"
        },
        {
            "name": "HK Dim Sum",
            "links": [
                {
                    "name": "Yelp",
                    "URL": "https://www.yelp.com/biz/hk-dim-sum-seattle-3"
                }
            ],
            "lat": 47.725070,
            "lon": -122.343610,
            "city": "Seattle",
            "address": "13200 Aurora Ave N, Ste F, Seattle, WA 98133"
        },
        {
            "name": "Homestyle Dim Sum",
            "links": [
                {
                    "name": "Yelp",
                    "URL": "https://www.yelp.com/biz/homestyle-dim-sum-seattle-2"
                }
            ],
            "lat": 47.59784964442067,
            "lon": -122.32430404437066,
            "city": "Seattle",
            "address": "664 S Weller St, Seattle, WA 98104"
        },
        {
            "name": "Hong Kong Bistro",
            "links": [
                {
                    "name": "The Infatuation",
                    "URL": "https://www.theinfatuation.com/seattle/reviews/hong-kong-bistro"
                }
            ],
            "lat": 47.598020,
            "lon": -122.325440,
            "city": "Seattle",
            "address": "507 Maynard Ave S, Ste 511C, Seattle, WA 98104"
        },
        {
            "name": "Jade Garden",
            "links": [
                {
                    "name": "site",
                    "URL": "https://jade-garden-seattle.weeblyte.com/"
                }
            ],
            "lat": 47.597530,
            "lon": -122.323760,
            "city": "Seattle",
            "address": "424 7th Ave S, Seattle, WA 98104"
        },
        {
            "name": "Joyale",
            "links": [
                {
                    "name": "site",
                    "URL": "http://www.joyaleseattle.com/"
                }
            ],
            "lat": 47.599499,
            "lon": -122.320343,
            "city": "Seattle",
            "address": "900 S Jackson St, Seattle, WA 98104"
        },
        {
            "name": "Joy Palace",
            "links": [
                {
                    "name": "Yelp",
                    "URL": "https://www.yelp.com/biz/joy-palace-seafood-restaurant-seattle"
                }
            ],
            "lat": 47.547590,
            "lon": -122.284960,
            "city": "Seattle",
            "address": "6030 Martin Luther King Jr Way S, Seattle, WA 98118"
        },
        {
            "name": "Ocean Star",
            "links": [
                {
                    "name": "site",
                    "URL": "https://www.oceanstarseattle.com/"
                }
            ],
            "lat": 47.597260,
            "lon": -122.324140,
            "city": "Seattle",
            "address": "605 7th Ave S, Seattle, WA 98104"
        },
        {
            "name": "Purple Dot Cafe",
            "links": [
                {
                    "name": "Yelp",
                    "URL": "https://www.yelp.com/biz/purple-dot-cafe-seattle-2"
                }
            ],
            "lat": 47.597851,
            "lon": -122.325439,
            "city": "Seattle",
            "address": "515 Maynard Ave S, Seattle, WA 98104"
        },
        {
            "name": "Regent Bakery and Cafe",
            "links": [
                {
                    "name": "site",
                    "URL": "http://regentbakeryandcafe.com/"
                }
            ],
            "lat": 47.615310,
            "lon": -122.298770,
            "city": "Seattle",
            "address": "1404 E Pine St, Seattle, WA 98122"
        },
        {
            "name": "Harbor City",
            "links": [
                {
                    "name": "site",
                    "URL": "https://harborcitytacoma.com/"
                }
            ],
            "lat": 47.213050,
            "lon": -122.434340,
            "city": "Tacoma",
            "address": "4816 Pacific Ave  Tacoma, WA 98408"
        },
        {
            "name": "Ming Palace",
            "links": [
                {
                    "name": "site",
                    "URL": "https://www.mingpalacerestaurant.com/"
                }
            ],
            "lat": 47.176620,
            "lon": -122.463850,
            "city": "Tacoma",
            "address": "8736 S Hosmer St Tacoma, WA 98444"
        }
    ]
}
