{
    "name": "Washington",
    "places": [
        {
            "title": "Dim Sum Factory",
            "links": [
                {
                    "name": "site",
                    "URL": "http://dimsumfactory.com/"
                },
                {
                    "name": "Yelp",
                    "URL": "https://www.yelp.com/biz/dim-sum-factory-bellevue"
                }
            ],
            "lat": 47.575290,
            "lon": -122.170140,
            "city": "Bellevue",
            "address": "4092 Factoria Mall Blvd SE, Bellevue, WA 98006"
        },
        {
            "title": "King's Chinese",
            "links": [
                {
                    "name": "Yelp",
                    "URL": "https://www.yelp.com/biz/kings-chinese-restaurant-bellevue"
                }
            ],
            "lat": 47.628590,
            "lon": -122.164340,
            "city": "Bellevue",
            "address": "13200 NE 20th St Ste 400 Bellevue, WA 98005"
        },
        {
            "title": "Top Gun",
            "links": [
                {
                    "name": "site",
                    "URL": "http://www.topgunrestaurants.com/"
                },
                {
                    "name": "Yelp",
                    "URL": "https://www.yelp.com/biz/top-gun-seafood-restaurant-bellevue-2"
                }
            ],
            "lat": 47.578030,
            "lon": -122.172690,
            "city": "Bellevue",
            "address": "12450 SE 38th St, Bellevue, WA 98006"
        },
        {
            "title": "Fashion Dim Sum",
            "links": [
                {
                    "name": "site",
                    "URL": "http://www.fashiondimsum.com/"
                },
                {
                    "name": "Yelp",
                    "URL": "https://www.yelp.com/biz/fashion-dim-sum-edmonds-3"
                }
            ],
            "lat": 47.791180,
            "lon": -122.337110,
            "city": "Edmonds",
            "address": "22923 Hwy 99, Edmonds, WA 98026"
        },
        {
            "title": "T&T Seafood",
            "links": [
                {
                    "name": "site",
                    "URL": "http://tandtseafoodrestaurant.com/"
                },
                {
                    "name": "Yelp",
                    "URL": "https://www.yelp.com/biz/t-and-t-seafood-restaurant-edmonds"
                }
            ],
            "lat": 47.794720,
            "lon": -122.333820,
            "city": "Edmonds",
            "address": "22511 Hwy 99, Ste 103, Edmonds, WA 98026"
        },
        {
            "title": "Engimono Ramen & Dim Sum",
            "links": [
                {
                    "name": "site",
                    "URL": "http://www.engimonoramendimsum.com/"
                },
                {
                    "name": "Yelp",
                    "URL": "https://www.yelp.com/biz/engimono-ramen-and-dim-sum-federal-way"
                }
            ],
            "lat": 47.31242915913376, 
            "lon": -122.31505741562796,
            "city": "Federal Way",
            "address":"1426 S 324th St Suite B-201 Federal Way, WA 9800"
        },
        {
            "title": "Macky's Dim Sum",
            "links": [
                {
                    "name": "Yelp",
                    "URL": "https://www.yelp.com/biz/mackys-dim-sum-issaquah"
                }
            ],
            "lat": 47.530222,
            "lon": -122.036075,
            "city": "Issaquah",
            "address": "28 E Sunset Way Issaquah, WA 98027"
        },
        {
            "title": "Imperial Garden",
            "links": [
                {
                    "name": "site",
                    "URL": "https://mywali.co/business/imperialgardenkent/index.html"
                },
                {
                    "name": "Yelp",
                    "URL": "https://www.yelp.com/biz/imperial-garden-restaurant-kent"
                }
            ],
            "lat": 47.438710,
            "lon": -122.220710,
            "city": "Kent",
            "address": "18230 E Valley Hwy, Ste 116, Kent, WA 98032"
        },
        {
            "title": "Lucky House",
            "links": [
                {
                    "name": "site",
                    "URL": "http://www.luckyhouseinkent.com/"
                },
                {
                    "name": "Yelp",
                    "URL": "https://www.yelp.com/biz/lucky-house-chinese-restaurant-kent"
                }
            ],
            "lat": 47.383570,
            "lon": -122.230200,
            "city": "Kent",
            "address": "317 E Smith St Kent, WA 98030t"
        },
        {
            "title": "U Lin Asian Bistro",
            "links": [
                {
                    "name": "site",
                    "URL": "https://ulinasianbistrolynnwood.com/"
                },
                {
                    "name": "Yelp",
                    "URL": "https://www.yelp.com/biz/u-lin-asian-bistro-lynnwood-7"
                }
            ],
            "lat": 47.848410,
            "lon": -122.248780,
            "city": "Lynwood",
            "address": "1120 164th St SW, Lynnwood, WA 98087"
        },
        {
            "title": "Tiger Garden",
            "links": [
                {
                    "name": "Yelp",
                    "URL": "https://www.yelp.com/biz/tiger-garden-mercer-island"
                }
            ],
            "lat": 47.584600,
            "lon": -122.234189,
            "city": "Mercer Island",
            "address": "2885 78th Ave SE Mercer Island, WA 98040"
        },
        {
            "title": "Renton Seafood",
            "links": [
                {
                    "name": "site",
                    "URL": "https://rentonseafood.com/"
                },
                {
                    "name": "Yelp",
                    "URL": "https://www.yelp.com/biz/renton-seafood-restaurant-renton"
                }
            ],
            "lat": 47.488910,
            "lon": -122.162120,
            "city": "Renton",
            "address": "4250 NE 4th St Ste A Renton, WA 98059"
        },
        {
            "title": "Bamboo Village",
            "links": [
                {
                    "name": "Yelp",
                    "URL": "https://www.yelp.com/biz/bamboo-village-restaurant-seattle-2"
                }
            ],
            "lat": 47.664520,
            "lon": -122.340300,
            "city": "Seattle",
            "address": "4900 Stone Way N, Seattle, WA 98103"
        },
        {
            "title": "Beacon BBQ",
            "links": [
                {
                    "name": "Yelp",
                    "URL": "https://www.yelp.com/biz/beacon-b-b-q-seattle-2"
                }
            ],
            "lat": 47.558520,
            "lon": -122.303660,
            "city": "Seattle",
            "address": "4886 Beacon Ave S, Seattle, WA 98108"
        },
        {
            "title": "Dim Sum House",
            "links": [
                {
                    "name": "Yelp",
                    "URL": "https://www.yelp.com/biz/dim-sum-house-seattle"
                }
            ],
            "lat": 47.559100,
            "lon": -122.304010,
            "city": "Seattle",
            "address": "4860 Beacon Ave S, Seattle, WA 98108"
        },
        {
            "title": "Dim Sum King",
            "links": [
                {
                    "name": "Yelp",
                    "URL": "https://www.yelp.com/biz/dim-sum-king-seattle"
                }
            ],
            "lat": 47.599200,
            "lon": -122.325720,
            "city": "Seattle",
            "address": "617 S Jackson St, Seattle, WA 98104"
        },
        {
            "title": "Foo Lam",
            "links": [
                {
                    "name": "Yelp",
                    "URL": "https://www.yelp.com/biz/foo-lam-chinese-restaurant-seattle"
                }
            ],
            "lat": 47.538550,
            "lon": -122.282740,
            "city": "Seattle",
            "address": "7101 Martin Luther King Jr Way S, Seattle, WA 98118"
        },
        {
            "title": "Golden Daisy Restaurant",
            "links": [
                {
                    "name": "site",
                    "URL": "https://goldendaisyrestaurant.weebly.com/"
                },
                {
                    "name": "Yelp",
                    "URL": "https://www.yelp.com/biz/golden-daisy-restaurant-seattle"
                }
            ],
            "lat": 47.580490,
            "lon": -122.313080,
            "city": "Seattle",
            "address": "2518 Beacon Ave S, Seattle, WA 98144"
        },
        {
            "title": "Harbor City",
            "links": [
                {
                    "name": "Yelp",
                    "URL": "https://harborcityseattle.com/"
                },
                {
                    "name": "Yelp",
                    "URL": "https://www.yelp.com/biz/harbor-city-restaurant-seattle"
                }
            ],
            "lat": 47.598240,
            "lon": -122.323387,
            "city": "Seattle",
            "address": "707 S King St, Seattle, WA 98104"
        },
        {
            "title": "Honey Court Seafood Restaurant",
            "links": [
                {
                    "name": "Yelp",
                    "URL": "https://www.yelp.com/biz/honey-court-seafood-restaurant-seattle-2"
                }
            ],
            "lat": 47.597810,
            "lon": -122.324900,
            "city": "Seattle",
            "address": "516 Maynard Ave S, Seattle, WA 98104"
        },
        {
            "title": "HK Dim Sum",
            "links": [
                {
                    "name": "site",
                    "URL": "http://hongkongdimsumrestaurant.com/"
                },
                {
                    "name": "Yelp",
                    "URL": "https://www.yelp.com/biz/hk-dim-sum-seattle-3"
                }
            ],
            "lat": 47.725070,
            "lon": -122.343610,
            "city": "Seattle",
            "address": "13200 Aurora Ave N, Ste F, Seattle, WA 98133"
        },
        {
            "title": "Hong Kong Bistro",
            "links": [
                {
                    "name": "Yelp",
                    "URL": "https://www.yelp.com/biz/hong-kong-bistro-seattle"
                }
            ],
            "lat": 47.598020,
            "lon": -122.325440,
            "city": "Seattle",
            "address": "507 Maynard Ave S, Ste 511C, Seattle, WA 98104"
        },
        {
            "title": "Jade Garden",
            "links": [
                {
                    "name": "Yelp",
                    "URL": "https://www.yelp.com/biz/jade-garden-seattle"
                }
            ],
            "lat": 47.597530,
            "lon": -122.323760,
            "city": "Seattle",
            "address": "424 7th Ave S, Seattle, WA 98104"
        },
        {
            "title": "Joyale",
            "links": [
                {
                    "name": "site",
                    "URL": "http://www.joyaleseattle.com/"
                },
                {
                    "name": "Yelp",
                    "URL": "https://www.yelp.com/biz/joyale-seafood-restaurant-seattle-2"
                }
            ],
            "lat": 47.599499,
            "lon": -122.320343,
            "city": "Seattle",
            "address": "900 S Jackson St, Seattle, WA 98104"
        },
        {
            "title": "Joy Palace",
            "links": [
                {
                    "name": "site",
                    "URL": "http://www.joypalaceseattle.com/"
                },
                {
                    "name": "Yelp",
                    "URL": "https://www.yelp.com/biz/joy-palace-seafood-restaurant-seattle"
                }
            ],
            "lat": 47.547590,
            "lon": -122.284960,
            "city": "Seattle",
            "address": "6030 Martin Luther King Jr Way S, Seattle, WA 98118"
        },
        {
            "title": "Ocean Star",
            "links": [
                {
                    "name": "site",
                    "URL": "http://www.seattleoceanstar.com/"
                },
                {
                    "name": "Yelp",
                    "URL": "https://www.yelp.com/biz/ocean-star-seattle"
                }
            ],
            "lat": 47.597260,
            "lon": -122.324140,
            "city": "Seattle",
            "address": "605 7th Ave S, Seattle, WA 98104"
        },
        {
            "title": "Purple Dot Cafe",
            "links": [
                {
                    "name": "Yelp",
                    "URL": "https://www.yelp.com/biz/purple-dot-cafe-seattle-2"
                }
            ],
            "lat": 47.597851,
            "lon": -122.325439,
            "city": "Seattle",
            "address": "515 Maynard Ave S, Seattle, WA 98104"
        },
        {
            "title": "Regent Bakery and Cafe",
            "links": [
                {
                    "name": "site",
                    "URL": "http://regentbakeryandcafe.com/"
                },
                {
                    "name": "Yelp",
                    "URL": "https://www.yelp.com/biz/regent-bakery-and-cafe-seattle"
                }
            ],
            "lat": 47.615310,
            "lon": -122.298770,
            "city": "Seattle",
            "address": "1404 E Pine St, Seattle, WA 98122"
        },
        {
            "title": "Harbor City",
            "links": [
                {
                    "name": "site",
                    "URL": "https://harborcitytacoma.com/"
                },
                {
                    "name": "Yelp",
                    "URL": "https://www.yelp.com/biz/harbor-city-restaurant-tacoma-tacoma"
                }
            ],
            "lat": 47.213050,
            "lon": -122.434340,
            "city": "Tacoma",
            "address": "4816 Pacific Ave  Tacoma, WA 98408"
        },
        {
            "title": "Ming Palace",
            "links": [
                {
                    "name": "site",
                    "URL": "https://www.mingpalacewa.com/"
                },
                {
                    "name": "Yelp",
                    "URL": "https://www.yelp.com/biz/ming-palace-tacoma"
                }
            ],
            "lat": 47.176620,
            "lon": -122.463850,
            "city": "Tacoma",
            "address": "8736 S Hosmer St Tacoma, WA 98444"
        }
    ]
}
